rosbagTimestamp,header,seq,stamp,secs,nsecs,frame_id,uptime,ros_control_loop_freq,mcu_and_user_port_current,left_driver_current,right_driver_current,battery_voltage,left_driver_voltage,right_driver_voltage,left_driver_temp,right_driver_temp,left_motor_temp,right_motor_temp,capacity_estimate,charge_estimate,timeout,lockout,e_stop,ros_pause,no_battery,current_limit
1560953435141111204,,1241,,1560953257,7404191,'',1270995,9.92327551606,2.38,0.63,0.59,28.19,25.78,25.63,31.56,27.69,23.24,23.24,480,1.0,False,False,False,False,False,False
1560953436133547306,,1242,,1560953257,997495040,'',1271985,9.49463188705,2.22,1.32,0.89,28.1,25.68,25.69,31.51,27.83,23.11,23.11,480,1.0,False,False,False,False,False,False
1560953437120867742,,1243,,1560953258,987160141,'',1272986,9.91096691007,2.82,0.0,4.37,28.1,25.59,25.46,31.51,28.02,23.24,22.99,480,1.0,False,False,False,False,False,False
1560953438132446561,,1244,,1560953259,998754756,'',1273987,9.91293498938,2.24,0.0,7.69,27.97,25.6,25.5,31.8,27.92,23.24,23.24,480,1.0,False,False,False,False,False,False
1560953439122977669,,1245,,1560953260,989302941,'',1274988,9.95538454594,3.06,0.0,6.83,28.0,25.52,25.36,31.71,27.5,23.36,23.24,480,1.0,False,False,False,False,False,False
1560953440134421062,,1246,,1560953262,753602,'',1275989,9.9064882981,2.76,0.0,8.01,28.03,25.65,25.48,31.85,27.59,23.11,22.86,480,1.0,False,False,False,False,False,False
1560953441124387463,,1247,,1560953262,990686145,'',1276990,9.94441707299,2.36,0.0,6.6,28.0,25.59,25.45,31.71,27.69,23.24,23.11,480,1.0,False,False,False,False,False,False
1560953442137334742,,1248,,1560953264,3663309,'',1277991,9.89573115476,2.98,0.0,6.83,28.1,25.6,25.46,31.27,27.59,23.48,23.11,480,1.0,False,False,False,False,False,False
1560953443127475239,,1249,,1560953264,993558630,'',1278992,9.82083294668,2.26,0.0,3.68,28.07,25.67,25.53,31.37,27.92,23.24,23.24,480,1.0,False,False,False,False,False,False
1560953444128249724,,1250,,1560953265,994571589,'',1279993,9.92799562326,2.5,1.74,1.41,28.03,25.62,25.59,31.56,27.78,23.36,23.24,480,1.0,False,False,False,False,False,False
1560953445140425319,,1251,,1560953267,6717373,'',1280994,9.91251747354,2.46,1.64,1.12,28.16,25.64,25.62,31.42,28.02,23.48,23.11,480,1.0,False,False,False,False,False,False
1560953446130069803,,1252,,1560953267,996419751,'',1281995,9.5893934864,2.42,2.17,0.82,27.97,25.6,25.58,31.46,28.26,23.36,23.11,480,1.0,False,False,False,False,False,False
1560953447121096825,,1253,,1560953268,986725040,'',1282985,9.90114871345,2.5,2.07,1.05,28.1,25.59,25.65,31.37,27.69,23.48,23.11,480,1.0,False,False,False,False,False,False
1560953448121339823,,1254,,1560953269,987643462,'',1283986,9.91672735621,2.34,6.64,0.59,27.97,25.55,25.6,31.66,27.83,23.61,23.11,480,1.0,False,False,False,False,False,False
1560953449206912013,,1255,,1560953270,999389810,'',1284987,9.92877030681,2.44,6.57,0.59,27.87,25.44,25.53,31.32,28.02,23.24,23.11,480,1.0,False,False,False,False,False,False
1560953450134264388,,1256,,1560953272,554373,'',1285988,9.97999460182,2.52,7.72,8.24,27.75,25.31,25.25,31.51,27.92,23.48,23.36,480,1.0,False,False,False,False,False,False
1560953451191684839,,1257,,1560953273,796473,'',1286989,9.92687664128,2.26,11.2,3.51,27.81,25.29,25.3,31.37,28.07,23.24,23.36,480,1.0,False,False,False,False,False,False
1560953452136528810,,1258,,1560953274,2842325,'',1287990,9.9447443155,2.3,12.94,1.51,27.81,25.39,25.42,31.61,27.69,23.24,23.36,480,1.0,False,False,False,False,False,False
1560953453137819653,,1259,,1560953275,3388227,'',1288991,9.89010931409,2.7,7.13,0.0,28.0,25.48,25.55,31.8,27.83,23.36,23.36,480,1.0,False,False,False,False,False,False
1560953454129373275,,1260,,1560953275,993404286,'',1289992,9.83744884809,2.64,8.01,0.59,27.94,25.37,25.39,31.37,27.69,23.36,23.36,480,1.0,False,False,False,False,False,False
1560953455128185411,,1261,,1560953276,994543232,'',1290993,9.91204045389,2.44,7.62,1.05,27.84,25.49,25.43,31.56,27.69,23.61,23.24,480,1.0,False,False,False,False,False,False
1560953456129396361,,1262,,1560953277,995695888,'',1291994,9.90699098906,3.0,7.32,3.25,27.87,25.42,25.49,31.66,28.02,23.48,23.24,480,1.0,False,False,False,False,False,False
1560953457141454949,,1263,,1560953279,7687070,'',1292995,9.91843672742,2.08,7.06,0.0,27.84,25.36,25.46,31.71,27.88,23.48,23.48,480,1.0,False,False,False,False,False,False
1560953458120203154,,1264,,1560953279,986494027,'',1293985,9.44427255868,2.56,8.24,0.0,27.87,25.32,25.46,31.85,27.92,23.48,23.11,480,1.0,False,False,False,False,False,False
1560953459131630788,,1265,,1560953280,997957438,'',1294986,9.91579968946,2.12,7.16,0.0,27.81,25.46,25.52,31.56,28.02,23.48,23.48,480,1.0,False,False,False,False,False,False
1560953460133784831,,1266,,1560953281,999874444,'',1295987,9.9200498542,2.16,7.36,0.59,27.87,25.45,25.53,31.66,28.31,23.61,23.48,480,1.0,False,False,False,False,False,False
1560953461123582251,,1267,,1560953282,989875852,'',1296988,9.91058580293,2.56,7.46,0.0,27.84,25.57,25.54,31.75,28.07,23.61,23.24,480,1.0,False,False,False,False,False,False
1560953462124319142,,1268,,1560953283,990622570,'',1297989,9.97830915157,2.42,6.5,0.59,28.07,25.48,25.52,32.14,28.55,23.73,23.48,480,1.0,False,False,False,False,False,False
1560953463136588866,,1269,,1560953285,2908228,'',1298990,9.92157333611,2.54,7.23,0.59,27.94,25.46,25.49,31.75,28.59,23.61,23.24,480,1.0,False,False,False,False,False,False
1560953464138033491,,1270,,1560953286,3950428,'',1299991,9.9329038306,2.56,6.76,0.59,27.81,25.46,25.43,31.37,28.55,23.61,23.61,480,1.0,False,False,False,False,False,False
1560953465128106829,,1271,,1560953286,993952025,'',1300992,9.8001197947,2.6,5.62,0.59,28.03,25.43,25.47,32.04,28.4,23.61,23.48,480,1.0,False,False,False,False,False,False
1560953466128639945,,1272,,1560953287,994940307,'',1301993,9.92213515141,2.14,6.93,0.59,27.84,25.54,25.5,32.04,28.5,23.61,23.36,480,1.0,False,False,False,False,False,False
1560953467128839228,,1273,,1560953288,995018411,'',1302994,9.92368665118,2.18,3.75,8.01,27.81,25.45,25.28,31.71,28.07,23.73,23.48,480,1.0,False,False,False,False,False,False
1560953468130387984,,1274,,1560953289,996708616,'',1303995,9.94155103665,2.28,0.59,8.54,27.75,25.44,25.24,31.75,28.07,23.61,23.48,480,1.0,False,False,False,False,False,False
1560953469132308003,,1275,,1560953290,998060527,'',1304985,9.93211340892,2.3,0.0,8.37,27.78,25.53,25.37,31.9,27.78,23.61,23.36,480,1.0,False,False,False,False,False,False
1560953470121294918,,1276,,1560953291,987611716,'',1305986,9.92064545148,2.78,0.0,7.82,28.07,25.43,25.34,31.9,28.4,23.85,23.36,480,1.0,False,False,False,False,False,False
1560953471123206965,,1277,,1560953292,988899144,'',1306987,9.92231295306,2.62,0.66,8.67,27.94,25.39,25.37,31.51,28.31,23.73,23.48,480,1.0,False,False,False,False,False,False
1560953472123026208,,1278,,1560953293,989185816,'',1307988,9.98184681375,2.1,4.11,8.34,27.68,25.42,25.37,32.14,28.16,23.85,23.61,480,1.0,False,False,False,False,False,False
1560953473124534791,,1279,,1560953294,990841716,'',1308989,9.94787057176,2.4,0.63,0.0,28.1,25.74,25.59,31.37,28.35,23.61,23.48,480,1.0,False,False,False,False,False,False
1560953474136613549,,1280,,1560953296,2939355,'',1309990,9.93569271923,2.4,0.63,0.59,28.16,25.65,25.59,31.94,28.02,23.73,23.61,480,1.0,False,False,False,False,False,False
1560953475138054839,,1281,,1560953297,4008230,'',1310991,9.91173903652,2.42,0.63,0.59,28.1,25.7,25.64,32.09,28.4,23.85,23.73,480,1.0,False,False,False,False,False,False
1560953476138783507,,1282,,1560953298,5107083,'',1311992,9.8371965611,2.34,0.63,0.59,28.1,25.74,25.65,31.9,28.78,23.73,23.48,480,1.0,False,False,False,False,False,False
1560953477140510323,,1283,,1560953299,5258708,'',1312993,9.72902363401,2.16,0.63,0.59,28.13,25.65,25.55,32.14,28.5,23.73,23.48,480,1.0,False,False,False,False,False,False
1560953478129752876,,1284,,1560953299,996070993,'',1313994,9.64148773825,2.38,0.63,0.59,28.03,25.67,25.58,32.04,28.59,23.73,23.61,480,1.0,False,False,False,False,False,False
1560953479130842334,,1285,,1560953300,997162878,'',1314984,9.92657855802,2.6,0.59,0.59,28.13,25.74,25.56,31.99,28.07,23.73,23.36,480,1.0,False,False,False,False,False,False
1560953480120678929,,1286,,1560953301,986996583,'',1315985,9.92171695868,2.7,0.92,4.11,27.91,25.57,25.47,32.14,28.35,23.73,23.61,480,1.0,False,False,False,False,False,False
1560953481121228797,,1287,,1560953302,987251025,'',1316986,9.92021193382,2.58,1.15,9.56,27.59,25.67,25.54,31.94,28.69,23.61,23.61,480,1.0,False,False,False,False,False,False
1560953482122890850,,1288,,1560953303,989216490,'',1317987,9.91749595446,2.28,0.63,0.59,28.1,25.65,25.6,31.94,28.21,23.85,23.61,480,1.0,False,False,False,False,False,False
1560953483134125041,,1289,,1560953305,436750,'',1318988,9.95974609261,2.52,5.03,3.68,27.81,25.39,25.36,31.9,28.55,23.85,23.61,480,1.0,False,False,False,False,False,False
1560953484124653428,,1290,,1560953305,990956346,'',1319989,9.93246480153,2.72,6.64,8.34,27.84,25.36,25.3,32.47,28.5,23.85,23.61,480,1.0,False,False,False,False,False,False
1560953485136751503,,1291,,1560953307,3056393,'',1320990,9.92270254409,2.72,0.0,1.12,28.16,25.67,25.62,31.61,28.64,23.61,23.73,480,1.0,False,False,False,False,False,False
1560953486127378671,,1292,,1560953307,993024664,'',1321991,9.9201237587,2.58,0.63,0.59,28.13,25.67,25.56,32.14,28.4,23.61,23.48,480,1.0,False,False,False,False,False,False
1560953487138946106,,1293,,1560953309,5261633,'',1322992,9.92390803816,2.48,0.63,0.59,28.1,25.71,25.67,31.99,28.4,23.73,23.73,480,1.0,False,False,False,False,False,False
1560953488129043557,,1294,,1560953309,995351614,'',1323993,9.71855520887,2.2,4.11,4.3,28.0,25.75,25.61,32.04,28.12,23.73,23.61,480,1.0,False,False,False,False,False,False
1560953489129613804,,1295,,1560953310,995913999,'',1324994,9.93256375233,2.52,0.63,0.59,28.16,25.66,25.65,31.71,28.59,23.73,23.61,480,1.0,False,False,False,False,False,False
1560953490142062234,,1296,,1560953312,8372936,'',1325995,9.92266335715,2.42,0.63,0.63,28.07,25.65,25.69,32.37,28.12,23.85,23.85,480,1.0,False,False,False,False,False,False
1560953491132771076,,1297,,1560953312,997491113,'',1326985,9.39664287643,2.58,0.66,0.59,28.0,25.74,25.61,32.14,28.26,23.85,23.48,480,1.0,False,False,False,False,False,False
1560953492134525264,,1298,,1560953313,999259521,'',1327986,9.92412254084,2.26,3.35,7.69,27.97,25.54,25.44,32.33,28.74,24.1,23.85,480,1.0,False,False,False,False,False,False
1560953493134059661,,1299,,1560953315,392309,'',1328987,9.97309299403,2.1,5.22,7.49,27.75,25.4,25.26,31.99,28.74,23.85,23.61,480,1.0,False,False,False,False,False,False
1560953494135367876,,1300,,1560953316,1049859,'',1329988,9.91657129074,2.4,4.47,6.44,27.84,25.38,25.32,32.42,28.83,23.73,23.48,480,1.0,False,False,False,False,False,False
1560953495125093063,,1301,,1560953316,991396354,'',1330989,9.92260211588,2.54,6.47,6.24,27.84,25.36,25.3,32.33,28.69,23.85,23.73,480,1.0,False,False,False,False,False,False
1560953496128341594,,1302,,1560953317,992085729,'',1331990,9.91749772488,2.46,6.5,6.57,27.84,25.34,25.33,32.33,28.74,23.98,23.85,480,1.0,False,False,False,False,False,False
1560953497126894022,,1303,,1560953318,993227448,'',1332991,9.93377677514,2.54,4.17,7.58,28.0,25.53,25.53,32.23,28.83,23.98,23.73,480,1.0,False,False,False,False,False,False
1560953498128039205,,1304,,1560953319,994257421,'',1333992,9.92532315884,2.38,8.77,4.8,27.84,25.32,25.29,32.37,28.69,24.1,23.85,480,1.0,False,False,False,False,False,False
1560953499129897984,,1305,,1560953320,995429414,'',1334993,9.92223832679,2.24,19.41,0.73,27.81,25.43,25.43,32.37,28.59,23.85,23.61,480,1.0,False,False,False,False,False,False
1560953500130569792,,1306,,1560953321,996484829,'',1335994,9.90005919938,2.3,3.68,0.86,27.97,25.59,25.58,32.52,28.59,24.1,23.73,480,1.0,False,False,False,False,False,False
1560953501120022772,,1307,,1560953322,986324884,'',1336984,9.91364108289,2.54,8.73,0.63,27.84,25.39,25.38,31.99,28.35,23.98,23.73,480,1.0,False,False,False,False,False,False
1560953502120843508,,1308,,1560953323,987142730,'',1337985,9.92341711995,2.44,12.18,0.69,28.07,25.53,25.45,32.09,28.5,24.23,23.85,480,1.0,False,False,False,False,False,False
1560953503133299302,,1309,,1560953324,999602486,'',1338986,9.91979537922,2.62,9.03,0.59,27.87,25.37,25.42,32.04,28.98,23.98,23.85,480,1.0,False,False,False,False,False,False
1560953504134575188,,1310,,1560953326,385796,'',1339987,9.9676425404,2.34,0.0,2.57,28.03,25.56,25.47,32.47,28.21,24.23,23.73,480,1.0,False,False,False,False,False,False
1560953505139481212,,1311,,1560953327,603641,'',1340988,9.91720325348,2.54,0.0,2.92,27.97,25.68,25.46,32.71,28.4,24.1,23.85,480,1.0,False,False,False,False,False,False
1560953506124314471,,1312,,1560953327,990609385,'',1341989,9.91826044186,2.7,0.0,7.23,27.97,25.55,25.39,32.57,28.45,24.23,23.85,480,1.0,False,False,False,False,False,False
1560953507125895572,,1313,,1560953328,992189915,'',1342990,9.92823317083,2.42,0.86,2.37,27.97,25.56,25.52,31.9,28.74,24.23,23.98,480,1.0,False,False,False,False,False,False
1560953508138635599,,1314,,1560953330,4381549,'',1343991,9.93202788282,2.3,0.0,6.67,27.78,25.47,25.35,32.18,28.69,24.1,24.1,480,1.0,False,False,False,False,False,False
1560953509138667427,,1315,,1560953331,4842750,'',1344992,9.71875554212,2.54,0.0,7.95,27.91,25.49,25.32,32.42,28.93,24.1,23.85,480,1.0,False,False,False,False,False,False
1560953510129976314,,1316,,1560953331,995137094,'',1345993,9.76900112481,2.22,0.0,7.72,27.81,25.46,25.4,32.42,28.83,24.23,24.1,480,1.0,False,False,False,False,False,False
1560953511130286940,,1317,,1560953332,996602448,'',1346994,9.92450124245,2.3,0.73,9.39,27.78,25.53,25.4,32.57,28.88,24.43,23.85,480,1.0,False,False,False,False,False,False
1560953512120932289,,1318,,1560953333,986636132,'',1347984,9.91669460861,2.48,0.79,5.58,27.97,25.53,25.51,32.57,28.69,24.35,24.1,480,1.0,False,False,False,False,False,False
1560953513121113767,,1319,,1560953334,987395720,'',1348985,9.92614471874,2.52,3.81,7.95,27.81,25.34,25.3,32.37,28.74,24.1,23.98,480,1.0,False,False,False,False,False,False
1560953514122977695,,1320,,1560953335,988483259,'',1349986,9.96365785688,2.46,4.53,6.44,27.81,25.4,25.37,32.33,28.78,24.35,24.1,480,1.0,False,False,False,False,False,False
1560953515123002388,,1321,,1560953336,989328700,'',1350987,9.97948039201,2.52,0.0,7.82,27.84,25.47,25.41,31.94,28.59,24.35,23.85,480,1.0,False,False,False,False,False,False
1560953516136578244,,1322,,1560953338,1466829,'',1351988,9.90549984752,2.26,2.46,6.47,27.87,25.46,25.25,32.18,29.12,24.43,23.98,480,1.0,False,False,False,False,False,False
1560953517124982950,,1323,,1560953338,991288233,'',1352989,9.90740921734,2.38,4.04,6.11,27.84,25.32,25.23,32.47,28.74,24.43,24.1,480,1.0,False,False,False,False,False,False
1560953518127173940,,1324,,1560953339,992575780,'',1353990,9.93293836262,2.46,1.38,1.48,28.1,25.59,25.54,32.57,28.74,24.35,24.1,480,1.0,False,False,False,False,False,False
1560953519138187117,,1325,,1560953341,4545138,'',1354991,9.8987459259,2.52,7.52,0.0,27.91,25.36,25.39,32.57,28.93,24.35,24.23,480,1.0,False,False,False,False,False,False
1560953520139872277,,1326,,1560953342,5702106,'',1355992,9.80241343849,2.22,3.12,0.59,27.91,25.6,25.55,32.28,28.98,24.43,24.35,480,1.0,False,False,False,False,False,False
1560953521129335414,,1327,,1560953342,995715938,'',1356993,9.62291306441,2.6,1.28,6.21,28.0,25.55,25.52,32.61,28.98,24.43,24.23,480,1.0,False,False,False,False,False,False
1560953522141291220,,1328,,1560953344,7548112,'',1357994,9.91625376626,2.42,3.22,7.32,27.87,25.47,25.3,32.61,28.78,24.43,23.98,480,1.0,False,False,False,False,False,False
1560953523131451783,,1329,,1560953344,997753029,'',1358984,9.48186455443,2.42,4.27,7.39,27.75,25.47,25.19,32.52,28.64,24.43,24.35,480,1.0,False,False,False,False,False,False
1560953524132449874,,1330,,1560953345,998644332,'',1359985,9.92545418159,2.48,0.0,3.42,28.0,25.62,25.46,32.71,29.07,24.43,24.35,480,1.0,False,False,False,False,False,False
1560953525122424284,,1331,,1560953346,988551927,'',1360986,9.96889087974,2.3,2.27,8.67,27.87,25.42,25.32,32.61,28.69,24.43,24.35,480,1.0,False,False,False,False,False,False
1560953526123289272,,1332,,1560953347,989464916,'',1361987,9.96347231633,2.6,2.2,7.32,27.91,25.51,25.35,32.8,28.93,24.56,24.43,480,1.0,False,False,False,False,False,False
1560953527124099611,,1333,,1560953348,990421880,'',1362988,9.93249489105,2.4,0.63,0.59,28.1,25.58,25.65,32.47,28.98,24.35,24.35,480,1.0,False,False,False,False,False,False
1560953528136800566,,1334,,1560953350,2632408,'',1363989,9.91575396944,2.38,0.63,0.0,28.1,25.68,25.55,32.37,28.88,24.43,24.35,480,1.0,False,False,False,False,False,False
1560953529138095289,,1335,,1560953351,3954080,'',1364990,9.91555909872,2.18,0.59,0.59,28.07,25.65,25.59,32.61,28.64,24.56,24.43,480,1.0,False,False,False,False,False,False
1560953530138004230,,1336,,1560953352,3970178,'',1365991,9.80830222565,2.6,0.63,0.59,28.13,25.67,25.61,32.18,29.17,24.68,24.56,480,1.0,False,False,False,False,False,False
1560953531128532747,,1337,,1560953352,994796468,'',1366992,9.81090520179,2.38,0.63,0.59,28.1,25.63,25.63,32.37,28.78,24.56,24.56,480,1.0,False,False,False,False,False,False
1560953532129606683,,1338,,1560953353,995926092,'',1367993,9.9326756293,2.44,0.63,0.59,28.07,25.63,25.59,32.95,28.74,24.68,24.68,480,1.0,False,False,False,False,False,False
1560953533141644664,,1339,,1560953355,7954289,'',1368994,9.92631409186,2.26,0.63,0.0,28.07,25.62,25.63,32.61,29.07,24.43,24.43,480,1.0,False,False,False,False,False,False
1560953534119670217,,1340,,1560953355,985989843,'',1369984,9.41242742936,2.56,0.63,0.59,28.1,25.64,25.65,32.28,29.03,24.35,24.56,480,1.0,False,False,False,False,False,False
1560953535131794564,,1341,,1560953356,998089367,'',1370985,9.93308507706,2.52,0.63,0.59,28.13,25.68,25.53,32.76,29.46,24.43,24.43,480,1.0,False,False,False,False,False,False
1560953536133821700,,1342,,1560953358,35538,'',1371986,9.96294551416,2.4,0.63,0.59,28.13,25.7,25.62,32.8,29.22,24.68,24.56,480,1.0,False,False,False,False,False,False
1560953537123303523,,1343,,1560953358,989625885,'',1372987,9.95320044961,2.36,1.19,1.22,28.1,25.65,25.54,32.71,28.83,24.68,24.56,480,1.0,False,False,False,False,False,False
1560953538124740779,,1344,,1560953359,991021807,'',1373988,9.92727477049,2.38,0.63,0.59,27.94,25.68,25.61,32.66,29.17,24.68,24.43,480,1.0,False,False,False,False,False,False
1560953539136668591,,1345,,1560953361,2645205,'',1374989,9.94117716004,2.14,0.63,0.59,27.94,25.63,25.59,32.76,29.17,24.8,24.56,480,1.0,False,False,False,False,False,False
1560953540126634908,,1346,,1560953361,992972068,'',1375990,9.92962714369,2.6,0.63,0.59,28.13,25.65,25.65,32.66,28.98,24.8,24.68,480,1.0,False,False,False,False,False,False
1560953541140715948,,1347,,1560953363,4943100,'',1376991,9.93179439517,2.64,0.63,0.59,28.07,25.64,25.53,32.71,29.17,24.56,24.43,480,1.0,False,False,False,False,False,False
1560953542139078378,,1348,,1560953364,5242597,'',1377992,9.69866885673,2.31,0.63,0.59,28.1,25.7,25.58,32.8,28.93,24.8,24.68,480,1.0,False,False,False,False,False,False
1560953543140744328,,1349,,1560953365,7060520,'',1378993,9.69197751795,2.5,0.63,0.59,28.1,25.67,25.6,32.95,28.88,24.68,24.56,480,1.0,False,False,False,False,False,False
1560953544130387342,,1350,,1560953365,996712423,'',1379994,9.50298802452,2.42,0.63,0.59,28.13,25.68,25.58,32.47,29.26,24.8,24.8,480,1.0,False,False,False,False,False,False
1560953545120348224,,1351,,1560953366,986652019,'',1380984,9.92319112679,2.66,0.63,0.59,28.1,25.59,25.6,32.52,29.46,24.68,24.56,480,1.0,False,False,False,False,False,False
1560953546132049353,,1352,,1560953367,998327218,'',1381985,9.98319857629,2.26,0.63,0.59,27.94,25.7,25.57,32.8,29.22,24.56,24.68,480,1.0,False,False,False,False,False,False
1560953547124116813,,1353,,1560953368,988737024,'',1382986,9.91701452165,2.62,0.63,0.59,28.13,25.72,25.54,32.61,28.74,24.8,24.43,480,1.0,False,False,False,False,False,False
1560953548134740033,,1354,,1560953370,1051820,'',1383987,9.92632207294,2.66,0.59,0.59,28.07,25.6,25.62,32.66,29.07,24.56,24.68,480,1.0,False,False,False,False,False,False
1560953549125070433,,1355,,1560953370,991122753,'',1384988,9.97302844323,2.52,0.63,0.59,28.13,25.65,25.57,33.0,29.31,24.43,24.56,480,1.0,False,False,False,False,False,False
1560953550125510333,,1356,,1560953371,991861377,'',1385989,9.929720122,2.52,0.63,0.59,28.16,25.63,25.53,32.71,29.22,24.8,24.56,480,1.0,False,False,False,False,False,False
1560953551126761533,,1357,,1560953372,993111638,'',1386990,9.92063167281,2.62,0.69,3.22,27.94,25.54,25.49,32.76,28.88,24.68,24.68,480,1.0,False,False,False,False,False,False
1560953552142108734,,1358,,1560953374,5037038,'',1387991,9.92623339505,2.56,0.63,0.59,28.16,25.62,25.59,32.52,29.22,24.68,24.8,480,1.0,False,False,False,False,False,False
1560953553140613698,,1359,,1560953375,6343220,'',1388992,9.7144127788,2.5,0.63,0.59,28.1,25.63,25.63,32.76,29.03,24.8,24.93,480,1.0,False,False,False,False,False,False
1560953554130392052,,1360,,1560953375,996019369,'',1389993,9.59321589261,2.22,0.63,0.59,28.1,25.6,25.52,32.71,29.12,24.68,24.56,480,1.0,False,False,False,False,False,False
1560953555130643701,,1361,,1560953376,996955640,'',1390994,9.93531207724,2.2,0.63,0.59,28.03,25.64,25.6,32.8,29.17,24.93,24.8,480,1.0,False,False,False,False,False,False
1560953556121007636,,1362,,1560953377,987326522,'',1391984,9.92986654418,2.68,0.63,0.59,28.07,25.64,25.63,32.66,28.78,24.68,24.8,480,1.0,False,False,False,False,False,False
1560953557133005761,,1363,,1560953378,999221811,'',1392985,9.91929493017,2.24,0.63,0.59,27.97,25.7,25.6,32.37,28.98,24.56,24.56,480,1.0,False,False,False,False,False,False
1560953558133624143,,1364,,1560953379,999949233,'',1393986,9.97834200867,2.4,0.63,0.59,28.1,25.67,25.66,32.37,29.31,24.68,24.68,480,1.0,False,False,False,False,False,False
1560953559134869284,,1365,,1560953381,1173429,'',1394987,9.95492023874,2.58,0.66,0.59,28.07,25.72,25.53,32.76,29.17,24.68,24.68,480,1.0,False,False,False,False,False,False
1560953560129416426,,1366,,1560953381,991366867,'',1395988,9.91735029028,2.31,0.63,0.59,28.03,25.67,25.66,32.61,29.26,24.8,24.8,480,1.0,False,False,False,False,False,False
1560953561127167985,,1367,,1560953382,992198860,'',1396989,9.91894004144,2.66,3.22,1.71,28.0,25.6,25.51,32.85,29.07,24.8,24.68,480,1.0,False,False,False,False,False,False
1560953562127038050,,1368,,1560953383,993343685,'',1397990,9.93625179066,2.52,0.63,0.82,28.0,25.63,25.53,32.57,28.98,24.8,24.93,480,1.0,False,False,False,False,False,False
1560953563131996998,,1369,,1560953384,994459750,'',1398991,9.93071045395,2.36,0.63,0.59,28.07,25.65,25.6,32.37,28.64,24.68,24.8,480,1.0,False,False,False,False,False,False
1560953564129314684,,1370,,1560953385,995102721,'',1399992,9.91157968963,2.48,0.63,0.59,27.97,25.67,25.63,32.47,28.59,24.8,24.8,480,1.0,False,False,False,False,False,False
1560953565130117970,,1371,,1560953386,996444893,'',1400993,9.92518652453,1.98,0.63,0.59,27.97,25.67,25.6,32.85,29.03,24.8,24.56,480,1.0,False,False,False,False,False,False
1560953566130871647,,1372,,1560953387,997180608,'',1401983,9.92601752027,2.54,3.98,4.8,27.97,25.5,25.44,32.61,28.98,24.68,24.68,480,1.0,False,False,False,False,False,False
1560953567121127940,,1373,,1560953388,987445300,'',1402984,9.92843110296,2.31,0.63,4.3,28.07,25.55,25.54,32.71,29.03,24.8,24.56,480,1.0,False,False,False,False,False,False
1560953568132865999,,1374,,1560953389,999192994,'',1403985,9.9067328653,2.56,0.59,0.59,28.13,25.62,25.61,32.61,28.69,24.56,24.8,480,1.0,False,False,False,False,False,False
1560953569204935200,,1375,,1560953391,392285,'',1404986,9.94153255465,2.38,0.63,0.59,28.1,25.66,25.56,32.66,29.03,24.8,25.05,480,1.0,False,False,False,False,False,False
1560953570134829151,,1376,,1560953392,1153527,'',1405987,9.937421177,2.66,2.33,0.63,27.91,25.54,25.54,32.9,29.12,24.93,24.68,480,1.0,False,False,False,False,False,False
1560953571337576172,,1377,,1560953392,991072066,'',1406988,9.93955201803,2.52,0.73,0.59,28.19,25.71,25.65,32.8,29.36,24.93,24.93,480,1.0,False,False,False,False,False,False
1560953572137791144,,1378,,1560953394,3511779,'',1407989,9.91389455421,2.48,0.59,0.59,27.97,25.63,25.58,32.8,28.64,24.8,24.93,480,1.0,False,False,False,False,False,False
1560953573126931907,,1379,,1560953394,993265518,'',1408990,9.80049984901,2.44,0.63,0.59,28.1,25.72,25.6,32.28,29.03,24.68,24.93,480,1.0,False,False,False,False,False,False
1560953574128109557,,1380,,1560953395,994438129,'',1409991,9.9382801991,2.02,0.63,0.59,28.0,25.61,25.65,32.52,28.74,24.8,24.93,480,1.0,False,False,False,False,False,False
1560953575129115931,,1381,,1560953396,995418441,'',1410992,9.90888591136,2.3,0.63,0.59,28.1,25.6,25.63,32.76,28.98,24.8,24.93,480,1.0,False,False,False,False,False,False
1560953576140840792,,1382,,1560953398,7179463,'',1411993,9.96975892963,2.36,0.66,0.59,28.13,25.67,25.62,32.09,28.93,25.05,24.93,480,1.0,False,False,False,False,False,False
1560953577130851586,,1383,,1560953398,997176828,'',1412983,9.50831848079,2.58,0.63,0.59,28.03,25.61,25.56,33.0,29.07,24.68,24.8,480,1.0,False,False,False,False,False,False
1560953578131773383,,1384,,1560953399,997800404,'',1413984,9.89498981637,2.44,0.63,0.59,28.1,25.7,25.61,33.0,29.07,24.68,24.8,480,1.0,False,False,False,False,False,False
1560953579132392505,,1385,,1560953400,998740961,'',1414985,9.92466671803,2.52,0.63,0.59,28.1,25.68,25.61,32.52,29.07,24.93,24.68,480,1.0,False,False,False,False,False,False
1560953580134208085,,1386,,1560953402,502415,'',1415986,9.96343330307,2.54,0.63,0.59,28.0,25.67,25.56,32.8,28.69,24.68,24.93,480,1.0,False,False,False,False,False,False
1560953581135183881,,1387,,1560953403,1484955,'',1416987,9.94622414775,2.26,0.63,0.63,28.1,25.68,25.53,32.57,29.07,24.68,25.05,480,1.0,False,False,False,False,False,False
1560953582136383405,,1388,,1560953404,2670452,'',1417988,9.92200273958,2.4,0.66,0.59,28.07,25.58,25.6,32.61,28.59,24.93,24.93,480,1.0,False,False,False,False,False,False
1560953583137433902,,1389,,1560953405,3717554,'',1418989,9.93871253163,2.42,0.63,0.59,28.1,25.65,25.6,32.37,28.98,24.8,24.93,480,1.0,False,False,False,False,False,False
1560953584127057406,,1390,,1560953405,993360741,'',1419990,9.78399942736,2.38,0.63,0.59,28.03,25.65,25.59,32.8,28.78,24.8,25.05,480,1.0,False,False,False,False,False,False
1560953585128201313,,1391,,1560953406,994568355,'',1420991,9.92842765288,2.36,0.63,0.59,27.94,25.67,25.65,32.85,28.74,24.93,25.05,480,1.0,False,False,False,False,False,False
1560953586129476489,,1392,,1560953407,995771107,'',1421992,9.9197532632,2.38,0.63,0.59,28.1,25.7,25.6,32.52,28.98,24.93,24.93,480,1.0,False,False,False,False,False,False
1560953587130008531,,1393,,1560953408,996322681,'',1422993,9.91283220391,2.62,0.63,0.59,28.07,25.6,25.61,32.9,29.22,25.05,24.68,480,1.0,False,False,False,False,False,False
1560953588120353937,,1394,,1560953409,986688537,'',1423983,9.94907773492,2.36,0.63,0.59,28.1,25.65,25.66,32.42,28.64,25.05,25.05,480,1.0,False,False,False,False,False,False
1560953589131931688,,1395,,1560953410,997993551,'',1424984,9.91022171584,2.54,0.63,0.59,28.1,25.7,25.63,32.47,29.36,24.93,25.05,480,1.0,False,False,False,False,False,False
1560953590122183482,,1396,,1560953411,988493149,'',1425985,9.98172525776,2.18,0.63,0.59,28.1,25.67,25.57,32.37,29.03,24.93,24.8,480,1.0,False,False,False,False,False,False
1560953591134146136,,1397,,1560953413,492442,'',1426986,9.98354581863,2.64,0.63,0.59,28.1,25.62,25.6,32.71,28.93,24.8,24.8,480,1.0,False,False,False,False,False,False
1560953592136484733,,1398,,1560953414,1844026,'',1427987,9.92363130598,2.48,0.63,0.59,28.13,25.62,25.59,32.18,28.74,25.05,24.8,480,1.0,False,False,False,False,False,False
1560953593125021743,,1399,,1560953414,991332016,'',1428988,9.92069574395,2.31,0.63,0.59,28.1,25.7,25.54,32.37,29.03,25.18,24.93,480,1.0,False,False,False,False,False,False
1560953594128080184,,1400,,1560953415,992708896,'',1429989,9.9785469224,2.26,0.63,0.59,28.07,25.69,25.58,32.04,28.55,24.93,24.8,480,1.0,False,False,False,False,False,False
1560953595127955652,,1401,,1560953416,993793752,'',1430990,9.91718594375,2.5,0.63,0.59,28.13,25.64,25.56,32.85,28.83,24.93,24.93,480,1.0,False,False,False,False,False,False
1560953596139399844,,1402,,1560953418,5725377,'',1431991,9.90844880648,2.22,0.63,0.59,28.1,25.64,25.65,32.57,29.03,25.05,24.8,480,1.0,False,False,False,False,False,False
1560953597129161675,,1403,,1560953418,995439670,'',1432992,9.62487631673,2.31,0.63,0.59,28.16,25.67,25.61,32.61,28.98,25.18,24.8,480,1.0,False,False,False,False,False,False
1560953598130130201,,1404,,1560953419,996463019,'',1433993,9.917564903,2.52,0.63,0.59,28.13,25.68,25.65,32.61,28.98,25.05,24.8,480,1.0,False,False,False,False,False,False
1560953599130753767,,1405,,1560953420,997085055,'',1434983,9.92507816545,2.42,0.63,0.59,27.94,25.63,25.53,32.66,28.69,25.18,24.93,480,1.0,False,False,False,False,False,False
1560953600121909555,,1406,,1560953421,987530698,'',1435984,9.92689319652,2.5,1.64,1.84,28.0,25.66,25.57,32.85,28.45,25.18,24.93,480,1.0,False,False,False,False,False,False
1560953601132924418,,1407,,1560953422,999061789,'',1436985,9.9729946265,2.18,4.57,4.63,28.03,25.67,25.6,32.57,28.69,24.8,25.05,480,1.0,False,False,False,False,False,False
1560953602134527794,,1408,,1560953424,889509,'',1437986,9.92053945513,2.62,0.63,0.59,28.07,25.62,25.65,32.52,29.03,24.93,24.93,480,1.0,False,False,False,False,False,False
1560953603124527905,,1409,,1560953424,990804064,'',1438987,9.93344719514,2.48,0.63,0.59,28.1,25.7,25.61,32.14,29.03,25.18,24.8,480,1.0,False,False,False,False,False,False
1560953604125666585,,1410,,1560953425,991948557,'',1439988,9.92883191999,2.46,0.63,0.59,28.13,25.7,25.64,32.47,28.45,24.93,25.05,480,1.0,False,False,False,False,False,False
1560953605137943672,,1411,,1560953427,3874610,'',1440989,9.92570983366,2.2,2.83,2.5,27.87,25.59,25.48,32.76,28.78,24.93,24.8,480,1.0,False,False,False,False,False,False
1560953606128060598,,1412,,1560953427,993985213,'',1441990,9.82246252593,2.26,2.57,1.84,28.07,25.6,25.52,32.52,28.64,24.93,24.93,480,1.0,False,False,False,False,False,False
1560953607139635587,,1413,,1560953429,5965122,'',1442991,9.93089191624,2.36,5.19,4.53,27.94,25.46,25.4,32.66,28.74,25.05,24.93,480,1.0,False,False,False,False,False,False
1560953608140867392,,1414,,1560953430,6829766,'',1443992,9.62544904043,2.31,0.63,0.59,28.13,25.6,25.58,32.47,28.83,25.3,24.93,480,1.0,False,False,False,False,False,False
1560953609130703280,,1415,,1560953430,996916437,'',1444982,9.52412472699,2.31,0.63,0.59,28.13,25.67,25.65,32.57,28.35,24.93,25.05,480,1.0,False,False,False,False,False,False
1560953610131379350,,1416,,1560953431,997710343,'',1445983,9.92088914342,2.42,2.89,2.69,28.03,25.61,25.61,32.33,28.69,25.05,25.05,480,1.0,False,False,False,False,False,False
1560953611133432867,,1417,,1560953432,999126414,'',1446984,9.92631596397,2.38,0.0,6.6,27.97,25.58,25.45,32.66,28.69,25.18,25.05,480,1.0,False,False,False,False,False,False
1560953612133469107,,1418,,1560953433,999804496,'',1447985,9.94154075788,2.06,4.04,3.78,27.87,25.4,25.46,32.42,28.78,25.18,25.05,480,1.0,False,False,False,False,False,False
1560953613123720818,,1419,,1560953434,990047185,'',1448986,9.91110472484,2.52,0.0,7.29,27.91,25.5,25.35,32.57,28.5,25.18,25.18,480,1.0,False,False,False,False,False,False
1560953614124776434,,1420,,1560953435,991067710,'',1449987,9.9374657145,2.2,1.74,7.85,27.84,25.32,25.21,32.37,28.59,24.93,25.18,480,1.0,False,False,False,False,False,False
1560953615125510788,,1421,,1560953436,991812040,'',1450988,9.97669722875,2.22,1.19,7.0,27.87,25.43,25.3,32.8,28.55,24.8,25.18,480,1.0,False,False,False,False,False,False
1560953616142397071,,1422,,1560953438,3911924,'',1451989,9.91893354801,2.26,0.0,7.52,27.94,25.54,25.41,32.33,28.78,25.18,25.18,480,1.0,False,False,False,False,False,False
1560953617128453308,,1423,,1560953438,993929995,'',1452990,9.83878462674,1.98,0.0,7.72,27.81,25.53,25.27,32.23,28.64,24.93,25.18,480,1.0,False,False,False,False,False,False
1560953618129219756,,1424,,1560953439,994849231,'',1453991,9.93508396269,2.2,2.6,8.14,27.87,25.53,25.39,32.14,28.64,25.05,25.18,480,1.0,False,False,False,False,False,False
1560953619129851232,,1425,,1560953440,996166152,'',1454992,9.96706264544,2.82,2.14,9.39,27.78,25.46,25.28,32.52,28.83,25.18,25.3,480,1.0,False,False,False,False,False,False
1560953620129998734,,1426,,1560953441,996340980,'',1455982,9.92543969996,2.58,0.63,0.59,28.13,25.61,25.6,32.42,28.64,25.05,25.18,480,1.0,False,False,False,False,False,False
1560953621132630132,,1427,,1560953442,997887740,'',1456983,9.90247370527,2.4,0.0,4.33,27.84,25.42,25.4,32.47,28.35,25.18,25.3,480,1.0,False,False,False,False,False,False
1560953622133101469,,1428,,1560953443,999205530,'',1457984,9.9279214043,2.52,4.24,4.66,28.1,25.64,25.56,32.37,28.74,25.18,25.42,480,1.0,False,False,False,False,False,False
1560953623122784151,,1429,,1560953444,989135101,'',1458985,9.90182195009,2.34,2.04,0.82,28.1,25.65,25.55,32.57,28.98,25.05,25.18,480,1.0,False,False,False,False,False,False
1560953624134054062,,1430,,1560953446,400433,'',1459986,9.90102568388,2.44,0.0,7.32,27.91,25.44,25.24,32.71,28.69,25.05,25.18,480,1.0,False,False,False,False,False,False
1560953625135666829,,1431,,1560953447,1998058,'',1460987,9.91739209084,2.3,0.0,5.88,27.94,25.54,25.42,32.9,28.98,25.18,25.3,480,1.0,False,False,False,False,False,False
1560953626125822131,,1432,,1560953447,992130879,'',1461988,9.92457176589,2.26,0.0,4.53,27.97,25.53,25.42,32.52,28.83,25.18,25.3,480,1.0,False,False,False,False,False,False
1560953627126810668,,1433,,1560953448,993135028,'',1462989,9.97188626106,2.54,0.0,4.66,27.97,25.59,25.43,32.37,28.5,25.3,25.18,480,1.0,False,False,False,False,False,False
1560953628138949823,,1434,,1560953450,5217986,'',1463990,9.92312820504,2.24,0.0,4.76,27.91,25.54,25.49,32.33,28.78,25.3,25.3,480,1.0,False,False,False,False,False,False
1560953629140142995,,1435,,1560953451,6486228,'',1464991,9.71437531413,2.42,0.0,7.65,27.97,25.48,25.35,32.47,28.59,25.18,25.3,480,1.0,False,False,False,False,False,False
1560953630140107423,,1436,,1560953452,6439152,'',1465992,9.53990361377,2.38,0.0,8.87,27.91,25.53,25.33,32.47,28.35,25.3,25.3,480,1.0,False,False,False,False,False,False
1560953631131028413,,1437,,1560953452,997335453,'',1466982,9.5466217675,2.5,0.59,7.65,27.97,25.48,25.39,32.47,28.83,25.18,25.55,480,1.0,False,False,False,False,False,False
1560953632132015480,,1438,,1560953453,998349217,'',1467983,9.91630135921,2.16,0.66,7.58,27.71,25.59,25.41,32.09,28.69,25.55,25.55,480,1.0,False,False,False,False,False,False
1560953633122156451,,1439,,1560953454,988484844,'',1468984,9.91359803631,2.52,0.69,7.72,27.91,25.49,25.33,32.66,29.12,25.3,25.55,480,1.0,False,False,False,False,False,False
1560953634122995223,,1440,,1560953455,989310332,'',1469985,9.96048049876,2.48,0.73,6.67,27.97,25.48,25.34,32.85,28.64,25.55,25.42,480,1.0,False,False,False,False,False,False
1560953635124171981,,1441,,1560953456,990473353,'',1470986,9.90871065241,2.22,0.69,8.08,27.87,25.53,25.39,32.47,28.69,25.42,25.55,480,1.0,False,False,False,False,False,False
1560953636136186653,,1442,,1560953458,2520744,'',1471987,9.93033542002,2.16,2.2,8.11,27.91,25.51,25.32,32.66,29.17,25.42,25.67,480,1.0,False,False,False,False,False,False
1560953637126127901,,1443,,1560953458,992468988,'',1472988,9.93665274571,2.36,1.74,1.61,28.03,25.53,25.46,32.66,28.83,25.18,25.8,480,1.0,False,False,False,False,False,False
1560953638141028996,,1444,,1560953460,4207258,'',1473989,9.91738658298,2.22,2.66,1.25,27.84,25.56,25.54,32.42,29.26,25.42,25.92,480,1.0,False,False,False,False,False,False
1560953639138274723,,1445,,1560953461,4594445,'',1474990,9.82438508854,2.36,1.84,1.19,28.03,25.53,25.46,32.52,29.17,25.3,25.67,480,1.0,False,False,False,False,False,False
1560953640140247106,,1446,,1560953462,6576737,'',1475991,9.7529850742,2.62,2.57,0.82,28.1,25.59,25.49,32.76,29.07,25.55,25.8,480,1.0,False,False,False,False,False,False
1560953641141010698,,1447,,1560953463,7354723,'',1476992,9.58097078171,2.62,6.6,0.59,27.84,25.39,25.39,32.57,28.69,25.55,25.8,480,1.0,False,False,False,False,False,False
1560953642130843286,,1448,,1560953463,997158172,'',1477982,9.49534600333,2.5,0.0,9.66,27.81,25.47,25.34,32.28,29.22,25.55,25.92,480,1.0,False,False,False,False,False,False
1560953643132425301,,1449,,1560953464,998452146,'',1478983,9.92429381479,2.52,2.86,0.0,27.97,25.59,25.5,32.52,29.17,25.55,25.92,480,1.0,False,False,False,False,False,False
1560953644133029076,,1450,,1560953465,999369441,'',1479984,9.90222219036,2.46,7.0,0.69,27.87,25.4,25.31,32.66,28.83,25.67,25.92,480,1.0,False,False,False,False,False,False
1560953645123043553,,1451,,1560953466,989159178,'',1480985,9.91632604087,2.16,7.32,0.59,27.84,25.43,25.34,32.57,29.36,25.67,26.04,480,1.0,False,False,False,False,False,False
1560953646124534327,,1452,,1560953467,990235127,'',1481986,9.97262454726,1.82,6.93,1.28,27.75,25.27,25.33,32.37,28.83,25.55,25.92,480,1.0,False,False,False,False,False,False
1560953647124947306,,1453,,1560953468,991275390,'',1482987,9.91888317502,2.44,7.85,1.74,27.84,25.42,25.33,32.9,29.03,25.67,25.92,480,1.0,False,False,False,False,False,False
1560953648125916511,,1454,,1560953469,992252600,'',1483988,9.92868671126,2.28,7.06,1.61,27.81,25.36,25.36,32.66,29.46,25.67,25.92,480,1.0,False,False,False,False,False,False
1560953649137940616,,1455,,1560953471,3876430,'',1484989,9.93740004404,2.24,6.34,0.59,27.87,25.33,25.41,32.57,29.22,25.8,25.92,480,1.0,False,False,False,False,False,False
1560953650128033866,,1456,,1560953471,994340132,'',1485990,9.81408280055,2.3,6.93,0.0,27.87,25.39,25.38,32.85,29.17,25.42,25.8,480,1.0,False,False,False,False,False,False
1560953651129432665,,1457,,1560953472,995772727,'',1486991,9.92159331899,2.46,7.19,0.59,27.78,25.3,25.43,32.8,28.88,25.8,26.04,480,1.0,False,False,False,False,False,False
1560953652129973176,,1458,,1560953473,996286427,'',1487992,9.92122832426,2.28,6.96,0.59,27.94,25.37,25.53,32.33,28.98,25.8,25.92,480,1.0,False,False,False,False,False,False
1560953653130418103,,1459,,1560953474,996793669,'',1488982,9.92012356188,2.42,5.88,3.32,27.91,25.48,25.46,32.71,29.36,25.67,26.04,480,1.0,False,False,False,False,False,False
1560953654121313526,,1460,,1560953475,987608294,'',1489983,9.91717374829,2.86,5.88,0.59,27.84,25.45,25.48,32.8,29.12,25.67,25.8,480,1.0,False,False,False,False,False,False
1560953655122523925,,1461,,1560953476,988867531,'',1490984,9.90867569955,2.26,6.04,0.59,27.78,25.45,25.47,32.37,29.41,25.92,26.04,480,1.0,False,False,False,False,False,False
1560953656122999043,,1462,,1560953477,989326851,'',1491985,9.98586361204,2.44,3.06,0.63,27.94,25.53,25.41,32.61,28.83,25.67,25.92,480,1.0,False,False,False,False,False,False
1560953657124269753,,1463,,1560953478,990580337,'',1492986,9.90335327443,2.48,2.43,1.02,28.03,25.53,25.5,32.66,29.12,25.92,26.04,480,1.0,False,False,False,False,False,False
1560953658126937709,,1464,,1560953479,991669719,'',1493987,9.92278515274,2.2,0.0,5.22,27.87,25.56,25.53,32.8,29.17,26.04,26.04,480,1.0,False,False,False,False,False,False
1560953659138025053,,1465,,1560953481,3770222,'',1494988,9.93052870244,2.64,0.0,8.31,27.91,25.52,25.33,32.9,29.22,25.92,26.29,480,1.0,False,False,False,False,False,False
1560953660138679554,,1466,,1560953482,4472269,'',1495989,9.78610826115,2.36,0.0,8.34,27.87,25.41,25.27,32.8,29.26,26.17,26.17,480,1.0,False,False,False,False,False,False
1560953661139496094,,1467,,1560953483,5851577,'',1496990,9.70811145526,2.58,0.0,7.65,27.87,25.41,25.35,32.9,29.03,25.8,26.41,480,1.0,False,False,False,False,False,False
1560953662129374267,,1468,,1560953483,995676357,'',1497991,9.6165403571,2.5,0.63,7.0,27.78,25.42,25.39,32.57,29.31,25.92,26.29,480,1.0,False,False,False,False,False,False
1560953663130550900,,1469,,1560953484,996879184,'',1498992,9.9231072313,2.08,0.0,7.32,27.71,25.49,25.36,32.8,29.74,26.04,26.17,480,1.0,False,False,False,False,False,False
1560953664131900460,,1470,,1560953485,997805641,'',1499982,9.94799724234,2.54,0.0,2.07,27.91,25.53,25.53,32.57,29.31,26.04,26.29,480,1.0,False,False,False,False,False,False
1560953665132429880,,1471,,1560953486,998764670,'',1500983,9.93409601495,2.52,0.0,7.0,27.84,25.37,25.25,32.76,29.55,26.17,26.41,480,1.0,False,False,False,False,False,False
1560953666133427405,,1472,,1560953487,999730337,'',1501984,9.93586853908,2.4,0.0,8.08,27.87,25.45,25.32,32.71,29.22,26.29,26.17,480,1.0,False,False,False,False,False,False
1560953667123627929,,1473,,1560953488,989946324,'',1502985,9.91667031848,2.38,1.15,2.57,27.97,25.5,25.4,32.37,28.93,25.92,26.54,480,1.0,False,False,False,False,False,False
1560953668135558596,,1474,,1560953490,1859791,'',1503986,9.98093332326,2.3,2.79,1.19,27.84,25.49,25.49,33.0,29.55,26.17,26.41,480,1.0,False,False,False,False,False,False
1560953669138602552,,1475,,1560953491,2720231,'',1504987,9.93032052969,2.42,0.0,8.31,27.81,25.44,25.28,32.61,29.5,26.17,26.29,480,1.0,False,False,False,False,False,False
1560953670139568507,,1476,,1560953492,3749395,'',1505988,9.93003367781,2.34,0.0,7.55,27.84,25.51,25.35,32.8,29.03,26.17,26.41,480,1.0,False,False,False,False,False,False
1560953671132363337,,1477,,1560953492,994008312,'',1506989,9.7932397364,2.24,0.0,6.83,27.84,25.46,25.39,33.0,29.12,26.17,26.41,480,1.0,False,False,False,False,False,False
1560953672139268908,,1478,,1560953494,5594858,'',1507990,9.96567582071,2.42,0.0,7.62,27.84,25.43,25.28,32.52,29.55,26.29,26.54,480,1.0,False,False,False,False,False,False
1560953673129795797,,1479,,1560953494,996116862,'',1508991,9.62372347924,2.16,0.0,7.39,27.78,25.44,25.4,32.71,29.65,26.17,26.79,480,1.0,False,False,False,False,False,False
1560953674140807540,,1480,,1560953496,7185955,'',1509992,9.91048728954,2.24,1.45,1.97,27.97,25.6,25.54,33.09,29.46,25.92,26.66,480,1.0,False,False,False,False,False,False
1560953675125412161,,1481,,1560953496,986994700,'',1510982,9.51963638721,2.34,0.0,2.43,28.03,25.62,25.53,33.0,29.12,26.29,26.79,480,1.0,False,False,False,False,False,False
1560953676132576960,,1482,,1560953497,998879879,'',1511983,9.9345520651,2.2,0.0,7.13,27.94,25.5,25.38,32.66,29.84,26.17,26.54,480,1.0,False,False,False,False,False,False
1560953677122511828,,1483,,1560953498,988835878,'',1512984,9.91154000107,2.5,0.0,7.36,27.94,25.37,25.23,33.0,29.46,26.29,26.79,480,1.0,False,False,False,False,False,False
1560953678123376735,,1484,,1560953499,989723010,'',1513985,9.90654561132,2.64,0.0,7.95,27.81,25.48,25.32,32.8,29.12,26.17,26.79,480,1.0,False,False,False,False,False,False
1560953679123790826,,1485,,1560953500,990120371,'',1514986,9.94536365297,2.52,0.0,8.21,27.87,25.39,25.35,32.95,29.41,26.29,26.66,480,1.0,False,False,False,False,False,False
1560953680136635304,,1486,,1560953502,2968904,'',1515987,9.94052622919,2.3,0.0,7.75,27.81,25.53,25.3,33.14,29.84,26.41,26.66,480,1.0,False,False,False,False,False,False
1560953681126978544,,1487,,1560953502,993086503,'',1516988,9.92334021219,2.08,0.0,5.22,27.87,25.56,25.41,32.85,29.26,26.29,26.91,480,1.0,False,False,False,False,False,False
1560953682139101659,,1488,,1560953504,4862733,'',1517989,9.93164466109,2.06,0.0,7.65,27.84,25.46,25.35,33.0,29.79,26.29,26.91,480,1.0,False,False,False,False,False,False
1560953683146115017,,1489,,1560953505,6218693,'',1518990,9.70459616856,2.56,0.0,7.46,27.91,25.35,25.3,33.0,29.36,26.29,27.03,480,1.0,False,False,False,False,False,False
1560953684140609165,,1490,,1560953506,6934299,'',1519991,9.60621659006,2.24,9.66,5.48,27.65,25.34,25.27,33.0,29.22,26.29,27.03,480,1.0,False,False,False,False,False,False
1560953685119476203,,1491,,1560953506,985809880,'',1520981,9.50898745753,2.6,6.83,0.59,27.91,25.22,25.3,33.0,29.79,26.54,27.03,480,1.0,False,False,False,False,False,False
1560953686120077848,,1492,,1560953507,986240193,'',1521982,9.919276826,1.82,3.39,3.84,27.62,25.42,25.33,32.8,29.36,26.29,26.91,480,1.0,False,False,False,False,False,False
1560953687121423165,,1493,,1560953508,987778512,'',1522983,9.93337398004,2.38,0.99,2.17,28.0,25.42,25.17,32.66,29.6,26.41,27.03,480,1.0,False,False,False,False,False,False
1560953688133727916,,1494,,1560953510,66944,'',1523984,9.97164045511,2.28,2.3,7.75,27.55,25.25,25.19,32.66,29.17,26.41,27.16,480,1.0,False,False,False,False,False,False
1560953689123618799,,1495,,1560953510,989928368,'',1524985,9.94927986466,2.64,0.0,7.69,27.97,25.5,25.36,32.95,29.55,26.41,27.03,480,1.0,False,False,False,False,False,False
1560953690124469121,,1496,,1560953511,990739650,'',1525986,9.9383036075,2.4,1.68,1.08,27.97,25.52,25.51,32.76,29.69,26.41,27.16,480,1.0,False,False,False,False,False,False
1560953691193131266,,1497,,1560953513,3032689,'',1526987,9.92725032995,2.64,0.0,7.95,27.91,25.45,25.33,32.71,29.5,26.54,27.28,480,1.0,False,False,False,False,False,False
1560953692139906773,,1498,,1560953514,4200249,'',1527988,9.92912599792,2.26,1.55,1.78,27.84,25.6,25.45,33.0,29.5,26.66,27.28,480,1.0,False,False,False,False,False,False
1560953693138794234,,1499,,1560953515,5148364,'',1528989,9.8226659116,2.6,6.34,2.76,27.81,25.42,25.35,32.9,29.65,26.29,27.28,480,1.0,False,False,False,False,False,False
1560953694128756374,,1500,,1560953515,995066220,'',1529990,9.71849882236,2.68,2.99,1.08,28.03,25.51,25.39,33.09,29.46,26.54,27.41,480,1.0,False,False,False,False,False,False
1560953695140788033,,1501,,1560953517,7109237,'',1530991,9.927355977,2.64,2.73,0.92,27.97,25.46,25.42,32.85,29.74,26.54,27.41,480,1.0,False,False,False,False,False,False
1560953696130713292,,1502,,1560953517,997061046,'',1531981,9.46757268308,2.52,0.89,1.78,28.0,25.55,25.51,33.0,30.12,26.79,27.53,480,1.0,False,False,False,False,False,False
1560953697121156566,,1503,,1560953518,986970338,'',1532982,9.92851725716,2.4,0.63,0.59,28.07,25.63,25.47,32.8,30.08,26.66,27.28,480,1.0,False,False,False,False,False,False
1560953698132685655,,1504,,1560953519,999019099,'',1533983,9.94989808419,2.48,0.66,0.59,28.07,25.52,25.55,33.24,29.93,26.66,27.53,480,1.0,False,False,False,False,False,False
1560953699133972536,,1505,,1560953521,352670,'',1534984,9.91077262034,2.48,0.63,0.59,28.03,25.63,25.5,33.0,29.84,26.66,27.53,480,1.0,False,False,False,False,False,False
1560953700123647257,,1506,,1560953521,989968973,'',1535985,9.94657881503,2.38,7.88,9.56,27.75,25.25,25.2,32.95,29.5,26.66,27.65,480,1.0,False,False,False,False,False,False
1560953701136322469,,1507,,1560953523,2512583,'',1536986,9.93812384958,2.42,7.26,6.6,27.71,25.22,25.24,33.05,29.79,26.54,27.65,480,1.0,False,False,False,False,False,False
1560953702125888282,,1508,,1560953523,992204903,'',1537987,9.94329962651,2.06,4.21,3.42,27.55,25.23,25.21,32.9,29.46,26.79,27.53,480,1.0,False,False,False,False,False,False
1560953703126662203,,1509,,1560953524,992997671,'',1538988,9.92940806489,2.6,4.86,7.88,27.91,25.45,25.32,32.47,29.6,26.91,27.53,480,1.0,False,False,False,False,False,False
1560953704139083001,,1510,,1560953526,5439006,'',1539989,9.91615946668,2.38,1.55,0.92,28.0,25.55,25.54,32.85,29.74,26.54,27.53,480,1.0,False,False,False,False,False,False
1560953705140349039,,1511,,1560953527,6182966,'',1540990,9.70484810442,2.31,2.1,1.22,27.91,25.52,25.47,32.85,29.65,26.66,27.65,480,1.0,False,False,False,False,False,False
1560953706129934702,,1512,,1560953527,996246331,'',1541991,9.592280501,2.16,0.63,0.59,27.84,25.57,25.53,32.8,29.74,26.79,27.78,480,1.0,False,False,False,False,False,False
1560953707130973206,,1513,,1560953528,997309839,'',1542981,9.92445278279,2.56,0.59,0.59,28.07,25.62,25.46,32.71,29.6,27.16,27.65,480,1.0,False,False,False,False,False,False
1560953708132258946,,1514,,1560953529,998598474,'',1543982,9.9094669121,2.08,6.47,7.19,27.65,25.31,25.25,33.28,29.84,26.79,27.65,480,1.0,False,False,False,False,False,False
1560953709122747935,,1515,,1560953530,988296456,'',1544983,9.95545144543,2.3,4.11,4.73,27.81,25.46,25.34,32.95,29.6,26.79,27.65,480,1.0,False,False,False,False,False,False
1560953710123620295,,1516,,1560953531,989173780,'',1545984,9.9073717216,2.26,6.04,5.94,27.75,25.34,25.31,33.05,29.6,27.03,27.65,480,1.0,False,False,False,False,False,False
1560953711124142440,,1517,,1560953532,990480758,'',1546985,9.97784469475,2.44,6.08,3.19,27.81,25.32,25.26,33.19,29.65,26.91,27.65,480,1.0,False,False,False,False,False,False
1560953712136171322,,1518,,1560953534,2518763,'',1547986,9.93042565042,2.0,3.28,3.48,27.75,25.44,25.37,33.0,29.84,26.79,27.78,480,1.0,False,False,False,False,False,False
1560953713126352543,,1519,,1560953534,992538474,'',1548987,9.91136808646,2.52,0.0,1.68,28.07,25.57,25.46,32.71,29.69,27.03,27.86,480,1.0,False,False,False,False,False,False
1560953714140856750,,1520,,1560953536,3718969,'',1549988,9.91710795235,2.7,0.0,4.8,27.97,25.58,25.44,32.9,29.46,27.03,27.86,480,1.0,False,False,False,False,False,False
1560953715129656600,,1521,,1560953536,994625209,'',1550989,9.81748741123,2.66,0.0,6.53,27.87,25.52,25.37,33.19,29.69,26.91,27.78,480,1.0,False,False,False,False,False,False
1560953716140171696,,1522,,1560953538,6522595,'',1551990,9.91310784278,2.46,0.0,5.16,27.97,25.53,25.4,32.95,29.93,27.03,27.86,480,1.0,False,False,False,False,False,False
1560953717141386022,,1523,,1560953539,7739919,'',1552991,9.6020458964,2.48,1.84,1.48,28.0,25.5,25.48,32.95,30.03,26.91,27.86,480,1.0,False,False,False,False,False,False
1560953718120570776,,1524,,1560953539,985744327,'',1553981,9.42772795669,2.44,1.97,1.22,28.0,25.55,25.5,33.24,29.84,27.03,27.78,480,1.0,False,False,False,False,False,False
1560953719131591381,,1525,,1560953540,997944193,'',1554982,9.92452389652,2.31,5.45,0.59,27.81,25.45,25.52,32.8,29.55,27.16,27.98,480,1.0,False,False,False,False,False,False
1560953720133354492,,1526,,1560953541,999690599,'',1555983,9.92608402565,2.26,6.67,0.59,27.71,25.37,25.51,33.0,29.74,27.03,27.98,480,1.0,False,False,False,False,False,False
1560953721122947436,,1527,,1560953542,989297116,'',1556984,9.92089750947,2.31,7.32,0.59,27.81,25.31,25.4,33.19,29.55,27.16,28.11,480,1.0,False,False,False,False,False,False
1560953722135259913,,1528,,1560953544,1610783,'',1557985,9.8984956781,2.3,6.76,0.59,27.78,25.35,25.39,32.71,29.84,26.91,27.86,480,1.0,False,False,False,False,False,False
1560953723136083978,,1529,,1560953545,2407779,'',1558986,9.92202223196,2.48,7.29,0.59,27.91,25.53,25.46,32.76,29.79,26.91,28.11,480,1.0,False,False,False,False,False,False
1560953724125944713,,1530,,1560953545,992275770,'',1559987,9.92789291949,2.2,6.8,0.0,27.87,25.32,25.44,33.24,29.65,27.16,27.86,480,1.0,False,False,False,False,False,False
1560953725126853046,,1531,,1560953546,993235107,'',1560988,9.93131137594,2.3,5.16,1.55,27.81,25.42,25.42,33.38,30.03,27.16,28.11,480,1.0,False,False,False,False,False,False
1560953726128014906,,1532,,1560953547,994328916,'',1561989,9.93341591578,2.48,5.45,3.51,27.81,25.2,25.33,33.57,29.93,27.03,28.11,480,1.0,False,False,False,False,False,False
1560953727129206810,,1533,,1560953548,995553243,'',1562990,9.93517200912,2.34,4.57,4.96,27.78,25.41,25.34,33.24,29.74,27.28,28.23,480,1.0,False,False,False,False,False,False
1560953728130514131,,1534,,1560953549,996869752,'',1563991,9.95129577116,2.5,6.83,6.67,27.75,25.27,25.2,33.24,29.74,27.16,27.98,480,1.0,False,False,False,False,False,False
1560953729131263235,,1535,,1560953550,997559533,'',1564981,9.89869262225,2.58,6.83,4.7,27.78,25.2,25.26,33.28,29.93,27.28,28.11,480,1.0,False,False,False,False,False,False
1560953730135091033,,1536,,1560953551,998801104,'',1565982,9.91037168859,2.24,4.63,7.98,27.78,25.28,25.28,33.05,29.69,27.28,28.23,480,1.0,False,False,False,False,False,False
1560953731133595258,,1537,,1560953552,999826610,'',1566983,9.93715129418,2.46,2.14,0.59,28.03,25.49,25.46,32.76,30.03,27.41,28.23,480,1.0,False,False,False,False,False,False
1560953732133633158,,1538,,1560953553,999982054,'',1567984,9.96290789465,2.34,2.17,0.59,28.03,25.5,25.44,33.38,29.65,27.16,28.36,480,1.0,False,False,False,False,False,False
1560953733134639542,,1539,,1560953555,1005214,'',1568985,9.91687555904,2.3,0.0,3.58,28.0,25.51,25.36,33.05,29.93,27.53,28.36,480,1.0,False,False,False,False,False,False
1560953734136417058,,1540,,1560953556,2486349,'',1569986,9.97245339117,2.7,0.0,7.23,27.78,25.51,25.47,33.28,29.55,27.41,28.11,480,1.0,False,False,False,False,False,False
1560953735126172208,,1541,,1560953556,992508920,'',1570987,9.95904244205,2.08,0.0,7.78,27.75,25.42,25.39,32.95,29.74,27.41,28.48,480,1.0,False,False,False,False,False,False
1560953736127189544,,1542,,1560953557,993538912,'',1571988,9.91721338363,2.34,5.55,6.31,27.78,25.3,25.18,33.05,29.6,27.65,28.36,480,1.0,False,False,False,False,False,False
1560953737128595469,,1543,,1560953558,994972516,'',1572989,9.91909903474,2.72,6.11,5.75,27.75,25.22,25.22,33.19,29.79,27.53,28.36,480,1.0,False,False,False,False,False,False
1560953738140415026,,1544,,1560953560,6770157,'',1573990,9.929858163,2.52,4.5,7.13,27.75,25.21,25.03,33.0,29.55,27.28,27.98,480,1.0,False,False,False,False,False,False
1560953739130478684,,1545,,1560953560,996592521,'',1574991,9.51212718216,2.31,0.89,7.23,27.78,25.43,25.27,33.05,29.93,27.53,28.36,480,1.0,False,False,False,False,False,False
1560953740120367850,,1546,,1560953561,986721536,'',1575981,9.92051376833,2.12,3.98,0.59,27.75,25.46,25.44,32.66,29.55,27.65,28.36,480,1.0,False,False,False,False,False,False
1560953741132611626,,1547,,1560953562,998882757,'',1576982,9.96980326049,2.44,6.24,0.59,27.84,25.39,25.38,33.48,29.69,27.65,28.6,480,1.0,False,False,False,False,False,False
1560953742122579951,,1548,,1560953563,988933063,'',1577983,9.92168841102,2.4,7.98,3.84,27.75,25.17,25.27,33.57,29.5,27.41,28.36,480,1.0,False,False,False,False,False,False
1560953743125610598,,1549,,1560953564,989834274,'',1578984,9.97506433418,2.44,6.53,4.6,27.78,25.29,25.29,33.14,29.84,27.53,28.6,480,1.0,False,False,False,False,False,False
1560953744135395313,,1550,,1560953566,1743573,'',1579985,9.90662167013,2.34,8.96,1.38,27.65,25.23,25.19,32.85,29.6,27.53,28.48,480,1.0,False,False,False,False,False,False
1560953745136559655,,1551,,1560953567,2900113,'',1580986,9.90719121598,2.96,5.85,0.59,27.78,25.35,25.35,33.19,29.98,27.86,28.73,480,1.0,False,False,False,False,False,False
1560953746128023322,,1552,,1560953567,992843366,'',1581987,9.90075257898,2.56,0.63,0.59,28.03,25.53,25.49,33.52,29.93,27.65,28.36,480,1.0,False,False,False,False,False,False
1560953747140323117,,1553,,1560953569,4960958,'',1582988,9.93212278039,2.52,0.63,0.0,28.0,25.6,25.53,33.38,29.6,27.78,28.48,480,1.0,False,False,False,False,False,False
1560953748128649383,,1554,,1560953569,995021150,'',1583989,9.71076090784,2.42,0.63,0.59,28.0,25.56,25.52,33.33,29.98,27.65,28.6,480,1.0,False,False,False,False,False,False
1560953749140599592,,1555,,1560953571,6948327,'',1584990,9.93868823229,2.1,0.66,0.59,27.84,25.53,25.56,33.24,29.65,27.65,28.48,480,1.0,False,False,False,False,False,False
1560953750131317445,,1556,,1560953571,997142523,'',1585980,9.57875774834,2.46,0.63,0.59,28.03,25.6,25.48,33.38,29.6,27.65,28.73,480,1.0,False,False,False,False,False,False
1560953751132422523,,1557,,1560953572,998084259,'',1586981,9.90075140268,2.28,0.63,0.59,27.84,25.52,25.56,33.76,29.65,27.65,28.6,480,1.0,False,False,False,False,False,False
1560953752132690402,,1558,,1560953573,999031075,'',1587982,9.91140237066,2.36,0.66,0.59,28.0,25.52,25.56,33.19,30.12,27.65,28.73,480,1.0,False,False,False,False,False,False
1560953753133375152,,1559,,1560953574,999711239,'',1588983,9.91475541166,2.36,0.63,0.59,28.07,25.65,25.47,33.19,29.93,27.86,28.73,480,1.0,False,False,False,False,False,False
1560953754134915399,,1560,,1560953576,1260192,'',1589984,9.94043532109,2.42,0.63,0.59,27.97,25.53,25.51,33.48,30.12,27.65,28.73,480,1.0,False,False,False,False,False,False
1560953755134957059,,1561,,1560953577,1306166,'',1590985,9.95727096056,2.4,0.63,0.59,28.0,25.61,25.48,33.57,30.27,27.78,28.6,480,1.0,False,False,False,False,False,False
1560953756136517039,,1562,,1560953578,2828098,'',1591986,9.93272061757,2.52,0.63,0.59,28.03,25.57,25.48,33.57,29.69,27.78,28.48,480,1.0,False,False,False,False,False,False
1560953757137833372,,1563,,1560953579,3943171,'',1592987,9.92434916738,2.56,0.66,0.59,27.87,25.63,25.51,33.19,30.17,27.65,28.73,480,1.0,False,False,False,False,False,False
1560953758139800030,,1564,,1560953580,4983264,'',1593988,9.81765261458,2.3,0.66,0.59,27.87,25.6,25.49,33.57,30.22,27.86,28.85,480,1.0,False,False,False,False,False,False
1560953759140000528,,1565,,1560953581,6095124,'',1594989,9.70735254005,2.38,6.57,0.76,27.94,25.4,25.4,33.24,29.69,27.86,28.73,480,1.0,False,False,False,False,False,False
1560953760129837388,,1566,,1560953581,996201751,'',1595990,9.61027268957,2.52,6.73,0.59,27.84,25.44,25.4,33.33,29.6,27.86,28.85,480,1.0,False,False,False,False,False,False
1560953761129974131,,1567,,1560953582,996354393,'',1596980,9.93366181436,2.46,8.7,0.66,27.71,25.25,25.32,33.28,29.6,27.65,28.85,480,1.0,False,False,False,False,False,False
1560953762131138444,,1568,,1560953583,997487159,'',1597981,9.91823850497,2.36,0.66,0.59,28.03,25.6,25.51,33.24,29.41,27.86,28.48,480,1.0,False,False,False,False,False,False
1560953763122012566,,1569,,1560953584,988359845,'',1598982,9.96648271862,2.42,0.63,0.59,28.03,25.54,25.54,33.43,29.93,27.98,28.73,480,1.0,False,False,False,False,False,False
1560953764124383552,,1570,,1560953585,989213806,'',1599983,9.91535371602,2.56,0.63,0.59,28.07,25.56,25.48,33.62,29.6,27.86,28.73,480,1.0,False,False,False,False,False,False
1560953765136329576,,1571,,1560953587,1197784,'',1600984,9.91548929321,2.54,8.47,0.59,27.84,25.33,25.38,33.52,29.93,27.78,28.73,480,1.0,False,False,False,False,False,False
1560953766125037624,,1572,,1560953587,991321250,'',1601985,9.91085797723,2.56,6.9,0.59,27.91,25.44,25.4,33.14,30.03,27.86,28.85,480,1.0,False,False,False,False,False,False
1560953767137088210,,1573,,1560953589,3428373,'',1602986,9.96824287281,2.42,5.58,0.0,27.84,25.34,25.46,33.38,29.93,27.86,28.73,480,1.0,False,False,False,False,False,False
1560953768137875494,,1574,,1560953590,4138934,'',1603987,9.82362544984,2.6,0.63,0.59,28.0,25.55,25.49,33.38,29.89,28.11,28.48,480,1.0,False,False,False,False,False,False
1560953769132452924,,1575,,1560953590,994408321,'',1604988,9.81879251494,2.22,1.08,0.0,27.94,25.51,25.53,33.62,29.89,27.98,28.73,480,1.0,False,False,False,False,False,False
1560953770128999093,,1576,,1560953591,995321574,'',1605989,9.92882285048,2.22,0.63,0.59,28.0,25.54,25.53,33.05,29.5,28.11,28.6,480,1.0,False,False,False,False,False,False
1560953771130075065,,1577,,1560953592,996450586,'',1606990,9.90872449617,2.42,4.21,0.59,27.97,25.45,25.41,33.43,30.03,27.86,28.73,480,1.0,False,False,False,False,False,False
1560953772119592450,,1578,,1560953593,985945533,'',1607980,9.92410904798,2.16,6.34,0.0,27.75,25.46,25.46,33.48,29.69,27.98,28.85,480,1.0,False,False,False,False,False,False
1560953773131807910,,1579,,1560953594,998144865,'',1608981,9.93319775512,2.56,5.91,0.0,27.91,25.45,25.36,33.38,29.69,27.98,28.73,480,1.0,False,False,False,False,False,False
1560953774132957409,,1580,,1560953595,999321333,'',1609982,9.91304780035,2.64,7.19,0.0,27.78,25.33,25.35,33.14,29.55,27.86,28.85,480,1.0,False,False,False,False,False,False
1560953775123046534,,1581,,1560953596,989386111,'',1610983,9.98697628384,2.31,7.29,0.0,27.78,25.32,25.32,33.09,29.93,28.11,28.85,480,1.0,False,False,False,False,False,False
1560953776124085479,,1582,,1560953597,990417732,'',1611984,9.90798327132,2.54,7.26,0.0,27.78,25.39,25.39,33.33,29.79,27.86,28.73,480,1.0,False,False,False,False,False,False
1560953777135959726,,1583,,1560953599,2311380,'',1612985,9.93374430955,2.34,7.29,2.37,27.65,25.37,25.32,33.33,29.6,28.11,28.85,480,1.0,False,False,False,False,False,False
1560953778126044752,,1584,,1560953599,992409031,'',1613986,9.93628861675,2.36,2.73,4.11,27.68,25.39,25.28,33.71,29.93,28.11,28.73,480,1.0,False,False,False,False,False,False
1560953779126698913,,1585,,1560953600,993054251,'',1614987,9.91413575222,2.36,5.09,0.0,27.84,25.36,25.45,33.09,29.55,28.23,28.85,480,1.0,False,False,False,False,False,False
