rosbagTimestamp,linear,x,y,z,angular,x,y,z
1.5609534350026E+018,,0,0,0,,0,0,0
1.56095343505259E+018,,0,0,0,,0,0,0
1.56095343510345E+018,,0,0,0,,0,0,0
1.56095343515268E+018,,0,0,0,,0,0,0
1.56095343515549E+018,,0,0,0,,0,0,0
1.56095343516762E+018,,0,0,0,,0,0,0
1.56095343517148E+018,,0,0,0,,0,0,0
1.56095343517577E+018,,0,0,0,,0,0,0
1.56095343518347E+018,,0,0,0,,0,0,0
1.56095343518804E+018,,0,0,0,,0,0,0
1.56095343520016E+018,,0.0012519371,0,0,,0,0,0
1.56095343521143E+018,,0.0082779765,0,0,,0,0,0
1.56095343522854E+018,,0.011790996,0,0,,0,0,0
1.5609534352355E+018,,0.0188170344,0,0,,0,0,0
1.56095343524514E+018,,0.0223300546,0,0,,0,0,0
1.56095343524893E+018,,0.0293560922,0,0,,0,0,0
1.56095343525613E+018,,0.0328691125,0,0,,0,0,0
1.56095343526348E+018,,0.039895153,0,0,,0,0,0
1.56095343527551E+018,,0.0434081703,0,0,,0,0,0
1.56095343529293E+018,,0.0504342079,0,0,,0,0,0
1.5609534353023E+018,,0.0539472282,0,0,,0,0,0
1.56095343531148E+018,,0.0609732687,0,0,,0,0,0
1.5609534353279E+018,,0.064486289,0,0,,0,0,0
1.56095343534352E+018,,0.0715123296,0,0,,0,0,0
1.56095343535549E+018,,0.0750253499,0,0,,0,0,0
1.56095343536347E+018,,0.0820513844,0,0,,0,0,0
1.56095343537152E+018,,0.0855644047,0,0,,0,0,0
1.56095343537948E+018,,0.0925904453,0,0,,0,0,0
1.56095343538808E+018,,0.0961034656,0,0,,0,0,0
1.56095343539148E+018,,0.1031295061,0,0,,0,0,0
1.56095343539614E+018,,0.1066560864,0,0,,0,0,0
1.56095343540435E+018,,0.113682127,0,0,,0,0,0
1.56095343540807E+018,,0.1171951413,0,0,,0,0,0
1.56095343541767E+018,,0.1242211819,0,0,,0,0,0
1.56095343542E+018,,0.1312472224,0,0,,0,0,0
1.56095343542347E+018,,0.1347602487,0,0,,0,0,0
1.56095343542805E+018,,0.1417862773,0,0,,0,0,0
1.56095343543148E+018,,0.1523253441,0,0,,0,0,0
1.56095343543605E+018,,0.1558383584,0,0,,0,0,0
1.56095343543992E+018,,0.162864399,0,0,,0,0,0
1.56095343544345E+018,,0.1663774133,0,0,,0,0,0
1.5609534354475E+018,,0.1734034538,0,0,,0,0,0
1.5609534354526E+018,,0.1769164801,0,0,,0,0,0
1.5609534354559E+018,,0.1874555349,0,0,,0,0,0
1.5609534354595E+018,,0.1944815755,0,0,,0,0,0
1.56095343546752E+018,,0.1979945898,0,0,,0,0,0
1.56095343547552E+018,,0.2050206423,0,0,,0,0,0
1.56095343548417E+018,,0.2085336447,0,0,,0,0,0
1.56095343549549E+018,,0.2155596972,0,0,,0,0,0
1.560953435516E+018,,0.2190727234,0,0,,0,0,0
1.56095343556556E+018,,0.2190727234,0,0,,0,0,0
1.56095343557949E+018,,0.226098752,0,0,,0,0,0
1.56095343559152E+018,,0.2296117783,0,0,,0,0,0
1.56095343559546E+018,,0.2366378069,0,0,,0,0,0
1.56095343560899E+018,,0.2401508331,0,0,,0,0,0
1.56095343561158E+018,,0.2471768618,0,0,,0,0,0
1.56095343561552E+018,,0.250689888,0,0,,0,0,0
1.56095343561946E+018,,0.2577294827,0,0,,0,0,0
1.5609534356234E+018,,0.2682685375,0,0,,0,0,0
1.56095343562744E+018,,0.2717815638,0,0,,0,0,0
1.56095343563146E+018,,0.2788076162,0,0,,0,0,0
1.56095343563546E+018,,0.2893466711,0,0,,0,0,0
1.56095343564197E+018,,0.2963726997,0,0,,0,0,0
1.56095343564346E+018,,0.3069117546,0,0,,0,0,0
1.56095343564746E+018,,0.3174508333,0,0,,0,0,0
1.56095343565215E+018,,0.3279898882,0,0,,0,0,0
1.56095343565545E+018,,0.3385289431,0,0,,0,0,0
1.56095343565967E+018,,0.3420419693,0,0,,0,0,0
1.56095343566348E+018,,0.3525810242,0,0,,0,0,0
1.56095343566795E+018,,0.363120079,0,0,,0,0,0
1.56095343567146E+018,,0.3736591339,0,0,,0,0,0
1.56095343567945E+018,,0.3912242413,0,0,,0,0,0
1.56095343568346E+018,,0.4,0,0,,0,0,0
1.56095343573502E+018,,0.4,0,0,,0,0,0
1.56095343578364E+018,,0.4,0,0,,0,0,0
1.56095343583369E+018,,0.4,0,0,,0,0,0
1.56095343588377E+018,,0.4,0,0,,0,0,0
1.56095343593568E+018,,0.4,0,0,,0,0,0
1.5609534359865E+018,,0.4,0,0,,0,0,0
1.56095343603396E+018,,0.4,0,0,,0,0,0
1.56095343608405E+018,,0.4,0,0,,0,0,0
1.56095343613415E+018,,0.4,0,0,,0,0,0
1.56095343618419E+018,,0.4,0,0,,0,0,0
1.56095343621553E+018,,0.4,0,0,,0,0,0
1.56095343622347E+018,,0.4,0,0,,0,0,0
1.56095343622744E+018,,0.4,0,0,,0,0,0
1.56095343623545E+018,,0.4,0,0,,0,0,0
1.56095343624131E+018,,0.4,0,0,,0,0,0
1.56095343624391E+018,,0.4,0,0,,0,0,0
1.56095343625146E+018,,0.4,0,0,,0,0,0
1.56095343625619E+018,,0.4,0,0,,0,0,0.0018779056
1.56095343627557E+018,,0.4,0,0,,0,0,0.0124169648
1.56095343632594E+018,,0.4,0,0,,0,0,0.0124169648
1.56095343637572E+018,,0.4,0,0,,0,0,0.0124169648
1.56095343640806E+018,,0.4,0,0,,0,0,0.0176864941
1.56095343641686E+018,,0.4,0,0,,0,0,0.0282255515
1.5609534364283E+018,,0.4,0,0,,0,0,0.033495082
1.56095343643147E+018,,0.4,0,0,,0,0,0.0440341383
1.56095343643547E+018,,0.4,0,0,,0,0,0.0493036687
1.56095343644345E+018,,0.4,0,0,,0,0,0.0598427296
1.56095343645145E+018,,0.4,0,0,,0,0,0.0651122555
1.56095343645944E+018,,0.4,0,0,,0,0,0.0756513119
1.56095343646747E+018,,0.4,0,0,,0,0,0.0809208423
1.56095343649694E+018,,0.4,0,0,,0,0,0.0914599031
1.56095343651147E+018,,0.4,0,0,,0,0,0.0967294335
1.56095343656392E+018,,0.4,0,0,,0,0,0.0967294335
1.56095343661163E+018,,0.4,0,0,,0,0,0.0967294335
1.56095343666425E+018,,0.4,0,0,,0,0,0.0967294335
1.56095343671174E+018,,0.4,0,0,,0,0,0.0967294335
1.56095343671545E+018,,0.4,0,0,,0,0,0.1072684944
1.56095343672751E+018,,0.4,0,0,,0,0,0.1125380248
1.56095343677816E+018,,0.4,0,0,,0,0,0.1125380248
1.56095343682918E+018,,0.4,0,0,,0,0,0.1125380248
1.5609534368782E+018,,0.4,0,0,,0,0,0.1125380248
1.56095343692806E+018,,0.4,0,0,,0,0,0.1125380248
1.56095343697814E+018,,0.4,0,0,,0,0,0.1125380248
1.56095343701583E+018,,0.4,0,0,,0,0,0.1230770767
1.56095343703145E+018,,0.4,0,0,,0,0,0.1283466071
1.56095343706349E+018,,0.4,0,0,,0,0,0.1388856679
1.56095343710749E+018,,0.4,0,0,,0,0,0.1441551983
1.56095343712746E+018,,0.4,0,0,,0,0,0.1546942592
1.56095343714945E+018,,0.4,0,0,,0,0,0.1599841297
1.56095343718408E+018,,0.4,0,0,,0,0,0.1705231905
1.56095343723342E+018,,0.4,0,0,,0,0,0.1705231905
1.56095343727952E+018,,0.4,0,0,,0,0,0.175792712
1.56095343732961E+018,,0.4,0,0,,0,0,0.175792712
1.56095343737964E+018,,0.4,0,0,,0,0,0.175792712
1.56095343743023E+018,,0.4,0,0,,0,0,0.175792712
1.56095343747981E+018,,0.4,0,0,,0,0,0.175792712
1.56095343752983E+018,,0.4,0,0,,0,0,0.175792712
1.56095343758039E+018,,0.4,0,0,,0,0,0.175792712
1.56095343759139E+018,,0.4,0,0,,0,0,0.1863317728
1.5609534376415E+018,,0.4,0,0,,0,0,0.1863317728
1.56095343769161E+018,,0.4,0,0,,0,0,0.1863317728
1.56095343774167E+018,,0.4,0,0,,0,0,0.1863317728
1.56095343779176E+018,,0.4,0,0,,0,0,0.1863317728
1.56095343784183E+018,,0.4,0,0,,0,0,0.1863317728
1.56095343789196E+018,,0.4,0,0,,0,0,0.1863317728
1.560953437942E+018,,0.4,0,0,,0,0,0.1863317728
1.5609534379474E+018,,0.4,0,0,,0,0,0.1916013122
1.56095343798029E+018,,0.4,0,0,,0,0,0.202140373
1.56095343802966E+018,,0.4,0,0,,0,0,0.202140373
1.56095343808038E+018,,0.4,0,0,,0,0,0.202140373
1.56095343813034E+018,,0.4,0,0,,0,0,0.202140373
1.56095343818018E+018,,0.4,0,0,,0,0,0.202140373
1.56095343819637E+018,,0.4,0,0,,0,0,0.2074098945
1.56095343822352E+018,,0.4,0,0,,0,0,0.2179489553
1.56095343824347E+018,,0.3841981888,0,0,,0,0,0.2179489553
1.56095343829361E+018,,0.3841981888,0,0,,0,0,0.2179489553
1.56095343834365E+018,,0.3841981888,0,0,,0,0,0.2179489553
1.56095343839372E+018,,0.3841981888,0,0,,0,0,0.2179489553
1.56095343844384E+018,,0.3841981888,0,0,,0,0,0.2179489553
1.56095343849391E+018,,0.3841981888,0,0,,0,0,0.2179489553
1.56095343850344E+018,,0.3841981888,0,0,,0,0,0.2232184768
1.56095343851942E+018,,0.3841981888,0,0,,0,0,0.2337575376
1.56095343853542E+018,,0.3806851625,0,0,,0,0,0.2337575376
1.56095343853967E+018,,0.3806851625,0,0,,0,0,0.239027077
1.56095343858456E+018,,0.3806851625,0,0,,0,0,0.2495661199
1.56095343858742E+018,,0.3736591339,0,0,,0,0,0.2495661199
1.56095343863801E+018,,0.3736591339,0,0,,0,0,0.2495661199
1.5609534386886E+018,,0.3736591339,0,0,,0,0,0.2495661199
1.56095343873909E+018,,0.3736591339,0,0,,0,0,0.2495661199
1.56095343878801E+018,,0.3736591339,0,0,,0,0,0.2495661199
1.56095343883814E+018,,0.3736591339,0,0,,0,0,0.2495661199
1.56095343888811E+018,,0.3736591339,0,0,,0,0,0.2495661199
1.56095343893817E+018,,0.3736591339,0,0,,0,0,0.2495661199
1.56095343895689E+018,,0.3736591339,0,0,,0,0,0.2548356593
1.56095343897141E+018,,0.3701461077,0,0,,0,0,0.2548356593
1.56095343902328E+018,,0.3701461077,0,0,,0,0,0.2548356593
1.56095343907155E+018,,0.3701461077,0,0,,0,0,0.2548356593
1.56095343912161E+018,,0.3701461077,0,0,,0,0,0.2548356593
1.5609534391717E+018,,0.3701461077,0,0,,0,0,0.2548356593
1.56095343920352E+018,,0.3701461077,0,0,,0,0,0.2653747201
1.56095343925353E+018,,0.3701461077,0,0,,0,0,0.2653747201
1.56095343930361E+018,,0.3701461077,0,0,,0,0,0.2653747201
1.56095343935372E+018,,0.3701461077,0,0,,0,0,0.2653747201
1.56095343940391E+018,,0.3701461077,0,0,,0,0,0.2653747201
1.56095343945146E+018,,0.3701461077,0,0,,0,0,0.2706442416
1.56095343947548E+018,,0.363120079,0,0,,0,0,0.2811833024
1.56095343950267E+018,,0.363120079,0,0,,0,0,0.2864528418
1.56095343953142E+018,,0.3596070528,0,0,,0,0,0.2864528418
1.56095343953941E+018,,0.3596070528,0,0,,0,0,0.2969918847
1.56095343958951E+018,,0.3596070528,0,0,,0,0,0.2969918847
1.56095343964008E+018,,0.3596070528,0,0,,0,0,0.2969918847
1.56095343968965E+018,,0.3596070528,0,0,,0,0,0.2969918847
1.56095343973977E+018,,0.3596070528,0,0,,0,0,0.2969918847
1.56095343978979E+018,,0.3596070528,0,0,,0,0,0.2969918847
1.56095343983985E+018,,0.3596070528,0,0,,0,0,0.2969918847
1.56095343988992E+018,,0.3596070528,0,0,,0,0,0.2969918847
1.56095343994284E+018,,0.3596070528,0,0,,0,0,0.2969918847
1.56095343997141E+018,,0.3596070528,0,0,,0,0,0.3022614241
1.5609534399837E+018,,0.3525810242,0,0,,0,0,0.3022614241
1.56095343999534E+018,,0.3525810242,0,0,,0,0,0.312800467
1.56095344003941E+018,,0.3490679979,0,0,,0,0,0.312800467
1.56095344004335E+018,,0.3490679979,0,0,,0,0,0.3180700064
1.56095344007146E+018,,0.3420419693,0,0,,0,0,0.3180700064
1.56095344008739E+018,,0.3420419693,0,0,,0,0,0.3286090851
1.56095344010741E+018,,0.3385289431,0,0,,0,0,0.3286090851
1.56095344011462E+018,,0.3385289431,0,0,,0,0,0.3338785887
1.56095344016147E+018,,0.3385289431,0,0,,0,0,0.3338785887
1.56095344021154E+018,,0.3385289431,0,0,,0,0,0.3338785887
1.56095344026165E+018,,0.3385289431,0,0,,0,0,0.3338785887
1.56095344031171E+018,,0.3385289431,0,0,,0,0,0.3338785887
1.56095344036178E+018,,0.3385289431,0,0,,0,0,0.3338785887
1.56095344041195E+018,,0.3385289431,0,0,,0,0,0.3338785887
1.56095344046201E+018,,0.3385289431,0,0,,0,0,0.3338785887
1.56095344051206E+018,,0.3385289431,0,0,,0,0,0.3338785887
1.5609534405625E+018,,0.3385289431,0,0,,0,0,0.3338785887
1.56095344061217E+018,,0.3385289431,0,0,,0,0,0.3338785887
1.56095344066222E+018,,0.3385289431,0,0,,0,0,0.3338785887
1.56095344071226E+018,,0.3385289431,0,0,,0,0,0.3338785887
1.56095344076239E+018,,0.3385289431,0,0,,0,0,0.3338785887
1.56095344081244E+018,,0.3385289431,0,0,,0,0,0.3338785887
1.56095344086372E+018,,0.3385289431,0,0,,0,0,0.3338785887
1.56095344091261E+018,,0.3385289431,0,0,,0,0,0.3338785887
1.56095344096268E+018,,0.3385289431,0,0,,0,0,0.3338785887
1.56095344101277E+018,,0.3385289431,0,0,,0,0,0.3338785887
1.56095344106279E+018,,0.3385289431,0,0,,0,0,0.3338785887
1.56095344111289E+018,,0.3385289431,0,0,,0,0,0.3338785887
1.56095344116293E+018,,0.3385289431,0,0,,0,0,0.3338785887
1.56095344121349E+018,,0.3385289431,0,0,,0,0,0.3338785887
1.56095344126299E+018,,0.3385289431,0,0,,0,0,0.3338785887
1.5609534413132E+018,,0.3385289431,0,0,,0,0,0.3338785887
1.56095344136318E+018,,0.3385289431,0,0,,0,0,0.3338785887
1.56095344141333E+018,,0.3385289431,0,0,,0,0,0.3338785887
1.56095344146338E+018,,0.3385289431,0,0,,0,0,0.3338785887
1.56095344151346E+018,,0.3385289431,0,0,,0,0,0.3338785887
1.56095344156352E+018,,0.3385289431,0,0,,0,0,0.3338785887
1.56095344161361E+018,,0.3385289431,0,0,,0,0,0.3338785887
1.56095344166365E+018,,0.3385289431,0,0,,0,0,0.3338785887
1.56095344171377E+018,,0.3385289431,0,0,,0,0,0.3338785887
1.56095344176382E+018,,0.3385289431,0,0,,0,0,0.3338785887
1.56095344181394E+018,,0.3385289431,0,0,,0,0,0.3338785887
1.56095344186399E+018,,0.3385289431,0,0,,0,0,0.3338785887
1.56095344191405E+018,,0.3385289431,0,0,,0,0,0.3338785887
1.56095344196415E+018,,0.3385289431,0,0,,0,0,0.3338785887
1.56095344201418E+018,,0.3385289431,0,0,,0,0,0.3338785887
1.56095344206427E+018,,0.3385289431,0,0,,0,0,0.3338785887
1.56095344211434E+018,,0.3385289431,0,0,,0,0,0.3338785887
1.56095344216441E+018,,0.3385289431,0,0,,0,0,0.3338785887
1.5609534422147E+018,,0.3385289431,0,0,,0,0,0.3338785887
1.56095344226511E+018,,0.3385289431,0,0,,0,0,0.3338785887
1.56095344231463E+018,,0.3385289431,0,0,,0,0,0.3338785887
1.5609534423677E+018,,0.3385289431,0,0,,0,0,0.3338785887
1.56095344240734E+018,,0.3525810242,0,0,,0,0,0.3338785887
1.56095344242545E+018,,0.3596070528,0,0,,0,0,0.3338785887
1.5609534424593E+018,,0.363120079,0,0,,0,0,0.3338785887
1.56095344247939E+018,,0.363120079,0,0,,0,0,0.312800467
1.56095344248742E+018,,0.3701461077,0,0,,0,0,0.312800467
1.56095344249967E+018,,0.3701461077,0,0,,0,0,0.3022614241
1.56095344251545E+018,,0.3701461077,0,0,,0,0,0.2969918847
1.56095344251936E+018,,0.3736591339,0,0,,0,0,0.2969918847
1.5609534425278E+018,,0.3736591339,0,0,,0,0,0.2864528418
1.56095344253535E+018,,0.3806851625,0,0,,0,0,0.2811833024
1.56095344254738E+018,,0.3806851625,0,0,,0,0,0.2706442416
1.56095344255133E+018,,0.3841981888,0,0,,0,0,0.2706442416
1.56095344256734E+018,,0.3841981888,0,0,,0,0,0.2653747201
1.56095344257538E+018,,0.3912242413,0,0,,0,0,0.2653747201
1.56095344259954E+018,,0.3912242413,0,0,,0,0,0.2548356593
1.56095344262741E+018,,0.3947372437,0,0,,0,0,0.2495661199
1.56095344263536E+018,,0.3947372437,0,0,,0,0,0.239027077
1.56095344264343E+018,,0.3947372437,0,0,,0,0,0.2337575376
1.56095344265134E+018,,0.3947372437,0,0,,0,0,0.2232184768
1.56095344266016E+018,,0.4,0,0,,0,0,0.2179489553
1.56095344266736E+018,,0.4,0,0,,0,0,0.2074098945
1.56095344267541E+018,,0.4,0,0,,0,0,0.202140373
1.56095344269136E+018,,0.4,0,0,,0,0,0.1916013122
1.56095344270334E+018,,0.4,0,0,,0,0,0.1863317728
1.56095344271931E+018,,0.4,0,0,,0,0,0.175792712
1.5609534427696E+018,,0.4,0,0,,0,0,0.175792712
1.56095344281142E+018,,0.4,0,0,,0,0,0.1705231905
1.56095344281934E+018,,0.4,0,0,,0,0,0.1599841297
1.56095344283167E+018,,0.4,0,0,,0,0,0.1546942592
1.56095344284332E+018,,0.4,0,0,,0,0,0.1441551983
1.56095344285134E+018,,0.4,0,0,,0,0,0.1388856679
1.5609534428795E+018,,0.4,0,0,,0,0,0.1230770767
1.560953442881E+018,,0.4,0,0,,0,0,0.1125380248
1.56095344288732E+018,,0.4,0,0,,0,0,0.1072684944
1.56095344289132E+018,,0.4,0,0,,0,0,0.0967294335
1.56095344289532E+018,,0.4,0,0,,0,0,0.0914599031
1.56095344290332E+018,,0.4,0,0,,0,0,0.0809208423
1.56095344291861E+018,,0.4,0,0,,0,0,0.0756513119
1.56095344292024E+018,,0.4,0,0,,0,0,0.0651122555
1.56095344292731E+018,,0.4,0,0,,0,0,0.0598427296
1.56095344293692E+018,,0.4,0,0,,0,0,0.0493036687
1.56095344293948E+018,,0.4,0,0,,0,0,0.0440341383
1.56095344294734E+018,,0.4,0,0,,0,0,0.0282255515
1.56095344295532E+018,,0.4,0,0,,0,0,0.0176864941
1.56095344295933E+018,,0.4,0,0,,0,0,0.0124169648
1.56095344296333E+018,,0.4,0,0,,0,0,0.0018779056
1.56095344297536E+018,,0.4,0,0,,0,0,0
1.56095344298329E+018,,0.4,0,0,,0,0,0
1.56095344298731E+018,,0.4,0,0,,0,0,0
1.56095344299527E+018,,0.4,0,0,,0,0,0
1.56095344300334E+018,,0.4,0,0,,0,0,0
1.56095344301535E+018,,0.4,0,0,,0,0,0
1.56095344304029E+018,,0.4,0,0,,0,0,0
1.56095344305131E+018,,0.4,0,0,,0,0,0
1.56095344305932E+018,,0.4,0,0,,0,0,0
1.56095344306734E+018,,0.4,0,0,,0,0,0
1.56095344311742E+018,,0.4,0,0,,0,0,0
1.56095344316979E+018,,0.4,0,0,,0,0,0
1.56095344321805E+018,,0.4,0,0,,0,0,0
1.56095344326817E+018,,0.4,0,0,,0,0,0
1.56095344332017E+018,,0.4,0,0,,0,0,0
1.56095344336803E+018,,0.4,0,0,,0,0,0
1.56095344341805E+018,,0.4,0,0,,0,0,0
1.56095344346804E+018,,0.4,0,0,,0,0,0
1.56095344351805E+018,,0.4,0,0,,0,0,0
1.56095344356817E+018,,0.4,0,0,,0,0,0
1.56095344361817E+018,,0.4,0,0,,0,0,0
1.56095344366821E+018,,0.4,0,0,,0,0,0
1.5609534437185E+018,,0.4,0,0,,0,0,0
1.56095344376855E+018,,0.4,0,0,,0,0,0
1.56095344381871E+018,,0.4,0,0,,0,0,0
1.56095344386868E+018,,0.4,0,0,,0,0,0
1.56095344391937E+018,,0.4,0,0,,0,0,0
1.56095344396877E+018,,0.4,0,0,,0,0,0
1.56095344401949E+018,,0.4,0,0,,0,0,0
1.56095344406929E+018,,0.4,0,0,,0,0,0
1.56095344411894E+018,,0.4,0,0,,0,0,0
1.56095344416898E+018,,0.4,0,0,,0,0,0
1.56095344421906E+018,,0.4,0,0,,0,0,0
1.56095344426915E+018,,0.4,0,0,,0,0,0
1.56095344431918E+018,,0.4,0,0,,0,0,0
1.56095344436925E+018,,0.4,0,0,,0,0,0
1.56095344441962E+018,,0.4,0,0,,0,0,0
1.56095344446951E+018,,0.4,0,0,,0,0,0
1.56095344451997E+018,,0.4,0,0,,0,0,0
1.56095344456956E+018,,0.4,0,0,,0,0,0
1.56095344462099E+018,,0.4,0,0,,0,0,0
1.56095344466978E+018,,0.4,0,0,,0,0,0
1.56095344472304E+018,,0.4,0,0,,0,0,0
1.56095344476984E+018,,0.4,0,0,,0,0,0
1.56095344481995E+018,,0.4,0,0,,0,0,0
1.5609534448701E+018,,0.4,0,0,,0,0,0
1.56095344492009E+018,,0.4,0,0,,0,0,0
1.56095344497036E+018,,0.4,0,0,,0,0,0
1.56095344502022E+018,,0.4,0,0,,0,0,0
1.56095344507033E+018,,0.4,0,0,,0,0,0
1.56095344512036E+018,,0.4,0,0,,0,0,0
1.56095344517041E+018,,0.4,0,0,,0,0,0
1.5609534452205E+018,,0.4,0,0,,0,0,0
1.56095344527054E+018,,0.4,0,0,,0,0,0
1.56095344532061E+018,,0.4,0,0,,0,0,0
1.5609534453707E+018,,0.4,0,0,,0,0,0
1.56095344542193E+018,,0.4,0,0,,0,0,0
1.5609534454709E+018,,0.4,0,0,,0,0,0
1.56095344552093E+018,,0.4,0,0,,0,0,0
1.56095344557104E+018,,0.4,0,0,,0,0,0
1.56095344562112E+018,,0.4,0,0,,0,0,0
1.56095344567111E+018,,0.4,0,0,,0,0,0
1.56095344572158E+018,,0.4,0,0,,0,0,0
1.56095344577137E+018,,0.4,0,0,,0,0,0
1.56095344582135E+018,,0.4,0,0,,0,0,0
1.56095344587146E+018,,0.4,0,0,,0,0,0
1.5609534459215E+018,,0.4,0,0,,0,0,0
1.56095344597157E+018,,0.4,0,0,,0,0,0
1.56095344602163E+018,,0.4,0,0,,0,0,0
1.56095344607167E+018,,0.4,0,0,,0,0,0
1.56095344612173E+018,,0.4,0,0,,0,0,0
1.56095344617181E+018,,0.4,0,0,,0,0,0
1.56095344622188E+018,,0.4,0,0,,0,0,0
1.5609534462719E+018,,0.4,0,0,,0,0,0
1.56095344632197E+018,,0.4,0,0,,0,0,0
1.5609534463721E+018,,0.4,0,0,,0,0,0
1.56095344642218E+018,,0.4,0,0,,0,0,0
1.56095344647227E+018,,0.4,0,0,,0,0,0
1.56095344652234E+018,,0.4,0,0,,0,0,0
1.56095344657244E+018,,0.4,0,0,,0,0,0
1.56095344662254E+018,,0.4,0,0,,0,0,0
1.56095344667264E+018,,0.4,0,0,,0,0,0
1.56095344672272E+018,,0.4,0,0,,0,0,0
1.56095344677284E+018,,0.4,0,0,,0,0,0
1.56095344682292E+018,,0.4,0,0,,0,0,0
1.56095344687321E+018,,0.4,0,0,,0,0,0
1.56095344692311E+018,,0.4,0,0,,0,0,0
1.56095344697597E+018,,0.4,0,0,,0,0,0
1.56095344702326E+018,,0.4,0,0,,0,0,0
1.56095344704332E+018,,0.4,0,0,,0,0,0
1.56095344704732E+018,,0.4,0,0,,0,0,0
1.56095344705526E+018,,0.4,0,0,,0,0,0
1.56095344706336E+018,,0.4,0,0,,0,0,0
1.56095344707123E+018,,0.4,0,0,,0,0,0
1.56095344712173E+018,,0.4,0,0,,0,0,0
1.56095344717143E+018,,0.4,0,0,,0,0,0
1.5609534471833E+018,,0.4,0,0,,0,0,-0.0071067436
1.56095344718725E+018,,0.4,0,0,,0,0,-0.022915332
1.56095344719128E+018,,0.4,0,0,,0,0,-0.0281848602
1.56095344720735E+018,,0.4,0,0,,0,0,-0.0387239188
1.5609534472153E+018,,0.4,0,0,,0,0,-0.0492629796
1.56095344721921E+018,,0.4,0,0,,0,0,-0.0545325056
1.56095344722326E+018,,0.4,0,0,,0,0,-0.0650715664
1.56095344724328E+018,,0.4,0,0,,0,0,-0.0703410968
1.56095344729345E+018,,0.4,0,0,,0,0,-0.0703410968
1.56095344734351E+018,,0.4,0,0,,0,0,-0.0703410968
1.56095344739354E+018,,0.4,0,0,,0,0,-0.0703410968
1.56095344744371E+018,,0.4,0,0,,0,0,-0.0703410968
1.56095344747993E+018,,0.4,0,0,,0,0,-0.0808801532
1.56095344748758E+018,,0.4,0,0,,0,0,-0.0966887444
1.56095344748907E+018,,0.4,0,0,,0,0,-0.1072277963
1.56095344749524E+018,,0.4,0,0,,0,0,-0.1124973267
1.56095344749922E+018,,0.4,0,0,,0,0,-0.1230363876
1.56095344750386E+018,,0.4,0,0,,0,0,-0.128305918
1.56095344750725E+018,,0.4,0,0,,0,0,-0.1388449788
1.56095344751119E+018,,0.4,0,0,,0,0,-0.1546535611
1.56095344751519E+018,,0.4,0,0,,0,0,-0.165212971
1.56095344751927E+018,,0.4,0,0,,0,0,-0.1810215533
1.5609534475232E+018,,0.4,0,0,,0,0,-0.1968301356
1.56095344752722E+018,,0.4,0,0,,0,0,-0.2073691964
1.56095344753124E+018,,0.4,0,0,,0,0,-0.2126387358
1.56095344753517E+018,,0.3841981888,0,0,,0,0,-0.2231777966
1.56095344753919E+018,,0.3806851625,0,0,,0,0,-0.2284473181
1.5609534475451E+018,,0.3806851625,0,0,,0,0,-0.2389863789
1.56095344754717E+018,,0.3806851625,0,0,,0,0,-0.2442559004
1.5609534475512E+018,,0.3736591339,0,0,,0,0,-0.2442559004
1.56095344755548E+018,,0.3736591339,0,0,,0,0,-0.2547949612
1.56095344756327E+018,,0.3701461077,0,0,,0,0,-0.2547949612
1.56095344759933E+018,,0.3701461077,0,0,,0,0,-0.265334022
1.56095344764935E+018,,0.3701461077,0,0,,0,0,-0.265334022
1.56095344769944E+018,,0.3701461077,0,0,,0,0,-0.265334022
1.56095344775049E+018,,0.3701461077,0,0,,0,0,-0.265334022
1.56095344779969E+018,,0.3701461077,0,0,,0,0,-0.265334022
1.56095344784962E+018,,0.3701461077,0,0,,0,0,-0.265334022
1.56095344789969E+018,,0.3701461077,0,0,,0,0,-0.265334022
1.5609534479499E+018,,0.3701461077,0,0,,0,0,-0.265334022
1.56095344800022E+018,,0.3701461077,0,0,,0,0,-0.265334022
1.56095344804988E+018,,0.3701461077,0,0,,0,0,-0.265334022
1.56095344810273E+018,,0.3701461077,0,0,,0,0,-0.265334022
1.56095344815065E+018,,0.3701461077,0,0,,0,0,-0.265334022
1.56095344820439E+018,,0.3701461077,0,0,,0,0,-0.265334022
1.56095344825017E+018,,0.3701461077,0,0,,0,0,-0.265334022
1.56095344830033E+018,,0.3701461077,0,0,,0,0,-0.265334022
1.56095344835059E+018,,0.3701461077,0,0,,0,0,-0.265334022
1.56095344839938E+018,,0.3701461077,0,0,,0,0,-0.2706035614
1.56095344840328E+018,,0.363120079,0,0,,0,0,-0.2811426044
1.56095344840934E+018,,0.3596070528,0,0,,0,0,-0.2864121437
1.56095344841123E+018,,0.3596070528,0,0,,0,0,-0.2969512045
1.56095344841527E+018,,0.3525810242,0,0,,0,0,-0.3074902654
1.56095344841932E+018,,0.3490679979,0,0,,0,0,-0.3127598047
1.56095344842325E+018,,0.3420419693,0,0,,0,0,-0.3232988477
1.56095344842734E+018,,0.3420419693,0,0,,0,0,-0.328568387
1.56095344843121E+018,,0.3420419693,0,0,,0,0,-0.33910743
1.56095344843537E+018,,0.3385289431,0,0,,0,0,-0.33910743
1.56095344843921E+018,,0.3385289431,0,0,,0,0,-0.3549160123
1.56095344844321E+018,,0.3315028906,0,0,,0,0,-0.365455091
1.56095344844884E+018,,0.3315028906,0,0,,0,0,-0.3707245946
1.56095344845121E+018,,0.3279898882,0,0,,0,0,-0.3812636733
1.56095344845921E+018,,0.3209638357,0,0,,0,0,-0.3812636733
1.56095344849925E+018,,0.3209638357,0,0,,0,0,-0.3812636733
1.56095344850319E+018,,0.3209638357,0,0,,0,0,-0.3812636733
1.56095344851156E+018,,0.3209638357,0,0,,0,0,-0.3812636733
1.56095344851416E+018,,0.3209638357,0,0,,0,0,-0.3812636733
1.5609534485154E+018,,0.3209638357,0,0,,0,0,-0.3812636733
1.56095344852085E+018,,0.3209638357,0,0,,0,0,-0.3812636733
1.56095344852384E+018,,0.3209638357,0,0,,0,0,-0.3812636733
1.56095344852722E+018,,0.3209638357,0,0,,0,0,-0.3812636733
1.56095344853122E+018,,0.3209638357,0,0,,0,0,-0.3812636733
1.56095344853519E+018,,0.3209638357,0,0,,0,0,-0.3812636733
1.56095344853923E+018,,0.3209638357,0,0,,0,0,-0.3812636733
1.56095344854325E+018,,0.3209638357,0,0,,0,0,-0.3812636733
1.56095344854722E+018,,0.3209638357,0,0,,0,0,-0.3812636733
1.56095344855118E+018,,0.3209638357,0,0,,0,0,-0.3865535617
1.56095344855523E+018,,0.3209638357,0,0,,0,0,-0.3865535617
1.56095344855913E+018,,0.3209638357,0,0,,0,0,-0.3865535617
1.56095344856321E+018,,0.3209638357,0,0,,0,0,-0.3865535617
1.56095344861412E+018,,0.3209638357,0,0,,0,0,-0.3865535617
1.56095344866338E+018,,0.3209638357,0,0,,0,0,-0.3865535617
1.56095344871648E+018,,0.3209638357,0,0,,0,0,-0.3865535617
1.56095344876397E+018,,0.3209638357,0,0,,0,0,-0.3865535617
1.56095344881125E+018,,0.299885726,0,0,,0,0,-0.4129011869
1.56095344886192E+018,,0.299885726,0,0,,0,0,-0.4129011869
1.56095344891138E+018,,0.299885726,0,0,,0,0,-0.4129011869
1.5609534489352E+018,,0.2893466711,0,0,,0,0,-0.4234402657
1.56095344893925E+018,,0.2893466711,0,0,,0,0,-0.4287097692
1.56095344897525E+018,,0.2788076162,0,0,,0,0,-0.439248848
1.5609534489802E+018,,0.2717815638,0,0,,0,0,-0.4445183516
1.5609534489832E+018,,0.2717815638,0,0,,0,0,-0.4550574303
1.5609534489992E+018,,0.2612425089,0,0,,0,0,-0.4708660126
1.56095344900319E+018,,0.250689888,0,0,,0,0,-0.4814050555
1.56095344900764E+018,,0.2471768618,0,0,,0,0,-0.4814050555
1.56095344902359E+018,,0.2401508331,0,0,,0,0,-0.4814050555
1.56095344902722E+018,,0.2366378069,0,0,,0,0,-0.4866745949
1.56095344903122E+018,,0.2366378069,0,0,,0,0,-0.4972136736
1.56095344903518E+018,,0.2296117783,0,0,,0,0,-0.5024831772
1.56095344903918E+018,,0.226098752,0,0,,0,0,-0.5024831772
1.56095344904322E+018,,0.2190727234,0,0,,0,0,-0.5024831772
1.56095344904743E+018,,0.2155596972,0,0,,0,0,-0.5130222559
1.56095344905118E+018,,0.2155596972,0,0,,0,0,-0.5235612988
1.56095344905518E+018,,0.2085336447,0,0,,0,0,-0.5235612988
1.56095344906129E+018,,0.2085336447,0,0,,0,0,-0.5288308382
1.56095344906459E+018,,0.2050206423,0,0,,0,0,-0.5288308382
1.56095344906811E+018,,0.2050206423,0,0,,0,0,-0.5393698812
1.56095344907123E+018,,0.1979945898,0,0,,0,0,-0.5393698812
1.56095344907638E+018,,0.1874555349,0,0,,0,0,-0.5446394205
1.56095344907923E+018,,0.1839425206,0,0,,0,0,-0.5551784992
1.56095344908315E+018,,0.1769164801,0,0,,0,0,-0.5709870815
1.56095344908718E+018,,0.1663774133,0,0,,0,0,-0.5709870815
1.56095344909118E+018,,0.162864399,0,0,,0,0,-0.5709870815
1.56095344909989E+018,,0.1558383584,0,0,,0,0,-0.5815261245
1.56095344911516E+018,,0.1523253441,0,0,,0,0,-0.5815261245
1.56095344920696E+018,,0.1523253441,0,0,,0,0,-0.5815261245
1.56095344924105E+018,,0.1523253441,0,0,,0,0,-0.5815261245
1.56095344926545E+018,,0.1523253441,0,0,,0,0,-0.5815261245
1.56095344931545E+018,,0.1523253441,0,0,,0,0,-0.5815261245
1.56095344933077E+018,,0.1734034538,0,0,,0,0,-0.5815261245
1.56095344933394E+018,,0.1769164801,0,0,,0,0,-0.5815261245
1.56095344933651E+018,,0.1839425206,0,0,,0,0,-0.5815261245
1.56095344935121E+018,,0.1874555349,0,0,,0,0,-0.5815261245
1.56095344936308E+018,,0.1944815755,0,0,,0,0,-0.5815261245
1.56095344936311E+018,,0.1979945898,0,0,,0,0,-0.5815261245
1.56095344939493E+018,,0.2050206423,0,0,,0,0,-0.5815261245
1.56095344939496E+018,,0.2085336447,0,0,,0,0,-0.5815261245
1.56095344939497E+018,,0.2085336447,0,0,,0,0,-0.5604480028
1.56095344940662E+018,,0.2085336447,0,0,,0,0,-0.5551784992
1.56095344940666E+018,,0.2155596972,0,0,,0,0,-0.5446394205
1.5609534494099E+018,,0.2296117783,0,0,,0,0,-0.5393698812
1.56095344942154E+018,,0.2401508331,0,0,,0,0,-0.5235612988
1.56095344942158E+018,,0.2401508331,0,0,,0,0,-0.5024831772
1.56095344949798E+018,,0.250689888,0,0,,0,0,-0.4972136736
1.56095344949799E+018,,0.2612425089,0,0,,0,0,-0.4972136736
1.560953449498E+018,,0.2612425089,0,0,,0,0,-0.4866745949
1.560953449498E+018,,0.2682685375,0,0,,0,0,-0.4866745949
1.56095344949801E+018,,0.2682685375,0,0,,0,0,-0.4814050555
1.56095344949801E+018,,0.2717815638,0,0,,0,0,-0.4814050555
1.56095344949802E+018,,0.2717815638,0,0,,0,0,-0.4708660126
1.56095344949802E+018,,0.2788076162,0,0,,0,0,-0.4708660126
1.56095344949803E+018,,0.2893466711,0,0,,0,0,-0.4655964732
1.56095344949803E+018,,0.2893466711,0,0,,0,0,-0.4550574303
1.56095344949804E+018,,0.299885726,0,0,,0,0,-0.4445183516
1.56095344949804E+018,,0.3069117546,0,0,,0,0,-0.439248848
1.56095344949804E+018,,0.3069117546,0,0,,0,0,-0.4287097692
1.56095344949805E+018,,0.3069117546,0,0,,0,0,-0.4234402657
1.56095344949805E+018,,0.3104247808,0,0,,0,0,-0.4129011869
1.56095344949805E+018,,0.3174508333,0,0,,0,0,-0.4129011869
1.56095344949806E+018,,0.3174508333,0,0,,0,0,-0.402362144
1.56095344953556E+018,,0.3209638357,0,0,,0,0,-0.3970926046
1.5609534495859E+018,,0.3209638357,0,0,,0,0,-0.3970926046
1.56095344963835E+018,,0.3209638357,0,0,,0,0,-0.3970926046
1.5609534496861E+018,,0.3209638357,0,0,,0,0,-0.3970926046
1.56095344977216E+018,,0.3209638357,0,0,,0,0,-0.3970926046
1.5609534497988E+018,,0.299885726,0,0,,0,0,-0.3970926046
1.56095344979881E+018,,0.2788076162,0,0,,0,0,-0.4445183516
1.56095344979882E+018,,0.2682685375,0,0,,0,0,-0.4655964732
1.56095344979883E+018,,0.2612425089,0,0,,0,0,-0.4708660126
1.56095344979885E+018,,0.2471768618,0,0,,0,0,-0.4814050555
1.56095344979885E+018,,0.2401508331,0,0,,0,0,-0.4866745949
1.56095344982311E+018,,0.2366378069,0,0,,0,0,-0.4972136736
1.56095344982312E+018,,0.2296117783,0,0,,0,0,-0.5024831772
1.56095344982312E+018,,0.226098752,0,0,,0,0,-0.5024831772
1.56095344982314E+018,,0.2190727234,0,0,,0,0,-0.5130222559
1.56095344982315E+018,,0.2155596972,0,0,,0,0,-0.5235612988
1.56095344986978E+018,,0.2155596972,0,0,,0,0,-0.5235612988
1.56095344987916E+018,,0.1979945898,0,0,,0,0,-0.5446394205
1.56095344988317E+018,,0.1874555349,0,0,,0,0,-0.5551784992
1.5609534498974E+018,,0.1769164801,0,0,,0,0,-0.5709870815
1.56095344989919E+018,,0.1734034538,0,0,,0,0,-0.5709870815
1.56095344990653E+018,,0.1663774133,0,0,,0,0,-0.5815261245
1.5609534499159E+018,,0.162864399,0,0,,0,0,-0.5815261245
1.56095344992165E+018,,0.1523253441,0,0,,0,0,-0.5867956638
1.56095344992315E+018,,0.1452993035,0,0,,0,0,-0.5867956638
1.56095344994527E+018,,0.1347602487,0,0,,0,0,-0.5867956638
1.56095344994717E+018,,0.1171951413,0,0,,0,0,-0.6
1.56095344995173E+018,,0.1066560864,0,0,,0,0,-0.6
1.56095344995915E+018,,0.1031295061,0,0,,0,0,-0.6
1.56095345006206E+018,,0.1031295061,0,0,,0,0,-0.6
1.56095345006565E+018,,0.1031295061,0,0,,0,0,-0.6
1.56095345011016E+018,,0.1031295061,0,0,,0,0,-0.6
1.56095345015948E+018,,0.1031295061,0,0,,0,0,-0.6
1.56095345020956E+018,,0.1031295061,0,0,,0,0,-0.6
1.56095345025957E+018,,0.1031295061,0,0,,0,0,-0.6
1.56095345034233E+018,,0.1171951413,0,0,,0,0,-0.6
1.56095345036305E+018,,0.1242211819,0,0,,0,0,-0.6
1.56095345036309E+018,,0.1312472224,0,0,,0,0,-0.6
1.56095345038753E+018,,0.1347602487,0,0,,0,0,-0.6
1.5609534504044E+018,,0.1417862773,0,0,,0,0,-0.6
1.56095345040443E+018,,0.1452993035,0,0,,0,0,-0.6
1.56095345040444E+018,,0.1523253441,0,0,,0,0,-0.6
1.56095345041716E+018,,0.1558383584,0,0,,0,0,-0.6
1.56095345044399E+018,,0.162864399,0,0,,0,0,-0.6
1.56095345045103E+018,,0.162864399,0,0,,0,0,-0.5815261245
1.56095345047069E+018,,0.1663774133,0,0,,0,0,-0.5815261245
1.56095345047072E+018,,0.1734034538,0,0,,0,0,-0.5815261245
1.56095345047074E+018,,0.1769164801,0,0,,0,0,-0.5815261245
1.56095345047438E+018,,0.1839425206,0,0,,0,0,-0.5815261245
1.56095345047555E+018,,0.1839425206,0,0,,0,0,-0.5709870815
1.56095345048378E+018,,0.1874555349,0,0,,0,0,-0.5709870815
1.56095345049826E+018,,0.1944815755,0,0,,0,0,-0.5709870815
1.56095345049828E+018,,0.1979945898,0,0,,0,0,-0.5604480028
1.5609534504983E+018,,0.2050206423,0,0,,0,0,-0.5551784992
1.5609534505086E+018,,0.2085336447,0,0,,0,0,-0.5446394205
1.56095345050863E+018,,0.2155596972,0,0,,0,0,-0.5393698812
1.56095345050864E+018,,0.2190727234,0,0,,0,0,-0.5393698812
1.56095345052297E+018,,0.2190727234,0,0,,0,0,-0.5288308382
1.56095345062578E+018,,0.2190727234,0,0,,0,0,-0.5288308382
1.5609534506519E+018,,0.2190727234,0,0,,0,0,-0.5288308382
1.5609534506732E+018,,0.2190727234,0,0,,0,0,-0.5288308382
1.56095345071545E+018,,0.2190727234,0,0,,0,0,-0.5288308382
1.56095345074319E+018,,0.2050206423,0,0,,0,0,-0.5288308382
1.56095345079333E+018,,0.2050206423,0,0,,0,0,-0.5288308382
1.56095345081323E+018,,0.1979945898,0,0,,0,0,-0.5288308382
1.56095345091161E+018,,0.1979945898,0,0,,0,0,-0.5288308382
1.56095345092243E+018,,0.1979945898,0,0,,0,0,-0.5288308382
1.56095345095349E+018,,0.1979945898,0,0,,0,0,-0.5288308382
1.56095345095964E+018,,0.1944815755,0,0,,0,0,-0.5288308382
1.56095345100538E+018,,0.1944815755,0,0,,0,0,-0.5288308382
1.56095345105536E+018,,0.1944815755,0,0,,0,0,-0.5288308382
1.5609534511055E+018,,0.1944815755,0,0,,0,0,-0.5288308382
1.56095345119171E+018,,0.1944815755,0,0,,0,0,-0.5288308382
1.56095345122216E+018,,0.1944815755,0,0,,0,0,-0.5288308382
1.56095345122218E+018,,0.1874555349,0,0,,0,0,-0.5288308382
1.56095345125732E+018,,0.1874555349,0,0,,0,0,-0.5288308382
1.56095345130839E+018,,0.1874555349,0,0,,0,0,-0.5288308382
1.56095345135807E+018,,0.1874555349,0,0,,0,0,-0.5288308382
1.56095345148756E+018,,0.1874555349,0,0,,0,0,-0.5288308382
1.56095345150312E+018,,0.1874555349,0,0,,0,0,-0.5288308382
1.56095345151365E+018,,0.1874555349,0,0,,0,0,-0.5288308382
1.5609534515579E+018,,0.1874555349,0,0,,0,0,-0.5288308382
1.56095345160805E+018,,0.1874555349,0,0,,0,0,-0.5288308382
1.56095345165888E+018,,0.1874555349,0,0,,0,0,-0.5288308382
1.56095345176347E+018,,0.1874555349,0,0,,0,0,-0.5288308382
1.56095345177642E+018,,0.1874555349,0,0,,0,0,-0.5288308382
1.56095345180839E+018,,0.1874555349,0,0,,0,0,-0.5288308382
1.56095345185901E+018,,0.1874555349,0,0,,0,0,-0.5288308382
1.56095345190847E+018,,0.1874555349,0,0,,0,0,-0.5288308382
1.56095345195921E+018,,0.1874555349,0,0,,0,0,-0.5288308382
1.56095345205544E+018,,0.2050206423,0,0,,0,0,-0.5288308382
1.56095345205546E+018,,0.2085336447,0,0,,0,0,-0.5288308382
1.56095345205546E+018,,0.2155596972,0,0,,0,0,-0.5288308382
1.56095345205546E+018,,0.2190727234,0,0,,0,0,-0.5288308382
1.56095345205547E+018,,0.226098752,0,0,,0,0,-0.5235612988
1.5609534520731E+018,,0.226098752,0,0,,0,0,-0.5130222559
1.56095345207313E+018,,0.2366378069,0,0,,0,0,-0.4972136736
1.56095345207313E+018,,0.2401508331,0,0,,0,0,-0.4972136736
1.56095345207314E+018,,0.2471768618,0,0,,0,0,-0.4972136736
1.56095345211151E+018,,0.2471768618,0,0,,0,0,-0.4866745949
1.56095345211153E+018,,0.250689888,0,0,,0,0,-0.4866745949
1.56095345211155E+018,,0.2577294827,0,0,,0,0,-0.4814050555
1.56095345211155E+018,,0.2612425089,0,0,,0,0,-0.4708660126
1.56095345211156E+018,,0.2682685375,0,0,,0,0,-0.4655964732
1.56095345211157E+018,,0.2717815638,0,0,,0,0,-0.4550574303
1.56095345211157E+018,,0.2788076162,0,0,,0,0,-0.4445183516
1.56095345212548E+018,,0.2823206186,0,0,,0,0,-0.4445183516
1.5609534521255E+018,,0.2823206186,0,0,,0,0,-0.439248848
1.56095345212552E+018,,0.2823206186,0,0,,0,0,-0.4287097692
1.56095345215795E+018,,0.2893466711,0,0,,0,0,-0.4287097692
1.56095345215798E+018,,0.2893466711,0,0,,0,0,-0.4234402657
1.56095345215799E+018,,0.299885726,0,0,,0,0,-0.402362144
1.56095345218253E+018,,0.3069117546,0,0,,0,0,-0.402362144
1.56095345218255E+018,,0.3104247808,0,0,,0,0,-0.3970926046
1.56095345219806E+018,,0.3174508333,0,0,,0,0,-0.3812636733
1.56095345224157E+018,,0.3174508333,0,0,,0,0,-0.3812636733
1.56095345229157E+018,,0.3174508333,0,0,,0,0,-0.3812636733
1.56095345234155E+018,,0.3174508333,0,0,,0,0,-0.3812636733
1.56095345235918E+018,,0.3279898882,0,0,,0,0,-0.3707245946
1.56095345237081E+018,,0.3315028906,0,0,,0,0,-0.3549160123
1.56095345238904E+018,,0.3315028906,0,0,,0,0,-0.3443769693
1.56095345238907E+018,,0.3385289431,0,0,,0,0,-0.33910743
1.56095345240879E+018,,0.3385289431,0,0,,0,0,-0.328568387
1.56095345243054E+018,,0.3420419693,0,0,,0,0,-0.3127598047
1.56095345243057E+018,,0.3420419693,0,0,,0,0,-0.3074902654
1.56095345243922E+018,,0.3490679979,0,0,,0,0,-0.2969512045
1.5609534524792E+018,,0.3525810242,0,0,,0,0,-0.2811426044
1.56095345250529E+018,,0.3596070528,0,0,,0,0,-0.265334022
1.56095345250723E+018,,0.363120079,0,0,,0,0,-0.2547949612
1.56095345251968E+018,,0.363120079,0,0,,0,0,-0.2442559004
1.56095345253994E+018,,0.3701461077,0,0,,0,0,-0.2442559004
1.56095345253997E+018,,0.3701461077,0,0,,0,0,-0.2389863789
1.56095345253997E+018,,0.3701461077,0,0,,0,0,-0.2284473181
1.56095345253999E+018,,0.3701461077,0,0,,0,0,-0.2231777966
1.56095345254717E+018,,0.3736591339,0,0,,0,0,-0.2126387358
1.56095345256325E+018,,0.3736591339,0,0,,0,0,-0.2073691964
1.56095345258934E+018,,0.3736591339,0,0,,0,0,-0.1968301356
1.56095345258938E+018,,0.3806851625,0,0,,0,0,-0.1968301356
1.5609534526076E+018,,0.3806851625,0,0,,0,0,-0.1862910926
1.56095345264154E+018,,0.3806851625,0,0,,0,0,-0.1862910926
1.56095345269213E+018,,0.3806851625,0,0,,0,0,-0.1862910926
1.56095345274228E+018,,0.3806851625,0,0,,0,0,-0.1862910926
1.56095345279122E+018,,0.3806851625,0,0,,0,0,-0.2126387358
1.56095345281322E+018,,0.363120079,0,0,,0,0,-0.2284473181
1.56095345282824E+018,,0.363120079,0,0,,0,0,-0.2389863789
1.56095345285071E+018,,0.3596070528,0,0,,0,0,-0.2442559004
1.56095345285074E+018,,0.3525810242,0,0,,0,0,-0.2547949612
1.56095345287569E+018,,0.3525810242,0,0,,0,0,-0.265334022
1.5609534529156E+018,,0.3525810242,0,0,,0,0,-0.265334022
1.56095345295932E+018,,0.3525810242,0,0,,0,0,-0.265334022
1.56095345301017E+018,,0.3525810242,0,0,,0,0,-0.265334022
1.56095345305944E+018,,0.3525810242,0,0,,0,0,-0.265334022
1.56095345306309E+018,,0.3525810242,0,0,,0,0,-0.2442559004
1.56095345308132E+018,,0.3701461077,0,0,,0,0,-0.2389863789
1.56095345309728E+018,,0.3701461077,0,0,,0,0,-0.2284473181
1.56095345309732E+018,,0.3701461077,0,0,,0,0,-0.2231777966
1.56095345310709E+018,,0.3701461077,0,0,,0,0,-0.2126387358
1.56095345312324E+018,,0.3736591339,0,0,,0,0,-0.2126387358
1.56095345312328E+018,,0.3806851625,0,0,,0,0,-0.2073691964
1.56095345316244E+018,,0.3806851625,0,0,,0,0,-0.1968301356
1.56095345316246E+018,,0.3806851625,0,0,,0,0,-0.1862910926
1.56095345316248E+018,,0.3841981888,0,0,,0,0,-0.1862910926
1.56095345316249E+018,,0.3841981888,0,0,,0,0,-0.1810215533
1.56095345319332E+018,,0.3841981888,0,0,,0,0,-0.1704824924
1.560953453222E+018,,0.3841981888,0,0,,0,0,-0.1704824924
1.56095345327128E+018,,0.3841981888,0,0,,0,0,-0.1704824924
1.56095345332441E+018,,0.3841981888,0,0,,0,0,-0.1704824924
1.56095345337142E+018,,0.3841981888,0,0,,0,0,-0.1704824924
1.56095345342186E+018,,0.3841981888,0,0,,0,0,-0.1704824924
1.56095345347162E+018,,0.3841981888,0,0,,0,0,-0.1704824924
1.56095345352214E+018,,0.3841981888,0,0,,0,0,-0.1704824924
1.56095345357186E+018,,0.3841981888,0,0,,0,0,-0.1704824924
1.56095345362183E+018,,0.3841981888,0,0,,0,0,-0.1704824924
1.5609534536762E+018,,0.3841981888,0,0,,0,0,-0.1704824924
1.56095345369513E+018,,0.3701461077,0,0,,0,0,-0.1704824924
1.56095345370405E+018,,0.3701461077,0,0,,0,0,-0.1968301356
1.56095345375384E+018,,0.3701461077,0,0,,0,0,-0.1968301356
1.56095345380333E+018,,0.3701461077,0,0,,0,0,-0.1968301356
1.56095345385332E+018,,0.3701461077,0,0,,0,0,-0.1968301356
1.56095345390344E+018,,0.3701461077,0,0,,0,0,-0.1968301356
1.5609534539535E+018,,0.3701461077,0,0,,0,0,-0.1968301356
1.56095345400357E+018,,0.3701461077,0,0,,0,0,-0.1968301356
1.56095345405384E+018,,0.3701461077,0,0,,0,0,-0.1968301356
1.56095345410371E+018,,0.3701461077,0,0,,0,0,-0.1968301356
1.56095345415383E+018,,0.3701461077,0,0,,0,0,-0.1968301356
1.5609534542051E+018,,0.3701461077,0,0,,0,0,-0.1968301356
1.56095345425397E+018,,0.3701461077,0,0,,0,0,-0.1968301356
1.5609534543053E+018,,0.3701461077,0,0,,0,0,-0.1968301356
1.56095345435562E+018,,0.3701461077,0,0,,0,0,-0.1968301356
1.56095345440419E+018,,0.3701461077,0,0,,0,0,-0.1968301356
1.56095345445426E+018,,0.3701461077,0,0,,0,0,-0.1968301356
1.56095345450437E+018,,0.3701461077,0,0,,0,0,-0.1968301356
1.56095345455447E+018,,0.3701461077,0,0,,0,0,-0.1968301356
1.56095345460456E+018,,0.3701461077,0,0,,0,0,-0.1968301356
1.56095345465565E+018,,0.3701461077,0,0,,0,0,-0.1968301356
1.56095345470471E+018,,0.3701461077,0,0,,0,0,-0.1968301356
1.56095345475803E+018,,0.3701461077,0,0,,0,0,-0.1968301356
1.56095345478749E+018,,0.3701461077,0,0,,0,0,-0.2073691964
1.56095345483799E+018,,0.3701461077,0,0,,0,0,-0.2073691964
1.56095345488735E+018,,0.3701461077,0,0,,0,0,-0.2073691964
1.56095345490734E+018,,0.3701461077,0,0,,0,0,-0.2126387358
1.56095345491115E+018,,0.363120079,0,0,,0,0,-0.2231777966
1.56095345491925E+018,,0.363120079,0,0,,0,0,-0.2284473181
1.5609534549245E+018,,0.363120079,0,0,,0,0,-0.2389863789
1.56095345492758E+018,,0.3596070528,0,0,,0,0,-0.2389863789
1.56095345493133E+018,,0.3596070528,0,0,,0,0,-0.2442559004
1.56095345494319E+018,,0.3596070528,0,0,,0,0,-0.2547949612
1.56095345495109E+018,,0.3525810242,0,0,,0,0,-0.2547949612
1.56095345495518E+018,,0.3525810242,0,0,,0,0,-0.265334022
1.56095345496316E+018,,0.3525810242,0,0,,0,0,-0.2706035614
1.56095345497511E+018,,0.3490679979,0,0,,0,0,-0.2811426044
1.5609534549911E+018,,0.3420419693,0,0,,0,0,-0.2811426044
1.56095345499506E+018,,0.3420419693,0,0,,0,0,-0.2864121437
1.56095345499906E+018,,0.3420419693,0,0,,0,0,-0.2969512045
1.56095345500707E+018,,0.3420419693,0,0,,0,0,-0.3074902654
1.56095345501106E+018,,0.3385289431,0,0,,0,0,-0.3127598047
1.56095345502371E+018,,0.3315028906,0,0,,0,0,-0.328568387
1.56095345502852E+018,,0.3279898882,0,0,,0,0,-0.33910743
1.5609534550311E+018,,0.3279898882,0,0,,0,0,-0.3443769693
1.56095345503501E+018,,0.3209638357,0,0,,0,0,-0.3443769693
1.56095345503904E+018,,0.3209638357,0,0,,0,0,-0.3549160123
1.56095345504762E+018,,0.3174508333,0,0,,0,0,-0.365455091
1.56095345505106E+018,,0.3104247808,0,0,,0,0,-0.3812636733
1.56095345505502E+018,,0.3069117546,0,0,,0,0,-0.3865535617
1.56095345505904E+018,,0.299885726,0,0,,0,0,-0.3865535617
1.56095345506559E+018,,0.299885726,0,0,,0,0,-0.3970926046
1.56095345506744E+018,,0.2963726997,0,0,,0,0,-0.3970926046
1.56095345507106E+018,,0.2893466711,0,0,,0,0,-0.402362144
1.56095345507502E+018,,0.2823206186,0,0,,0,0,-0.4129011869
1.56095345509106E+018,,0.2717815638,0,0,,0,0,-0.4287097692
1.56095345509507E+018,,0.2682685375,0,0,,0,0,-0.439248848
1.56095345514516E+018,,0.2682685375,0,0,,0,0,-0.439248848
1.56095345519521E+018,,0.2682685375,0,0,,0,0,-0.439248848
1.5609534552453E+018,,0.2682685375,0,0,,0,0,-0.439248848
1.56095345524751E+018,,0.2577294827,0,0,,0,0,-0.4655964732
1.56095345525107E+018,,0.250689888,0,0,,0,0,-0.4655964732
1.56095345525906E+018,,0.250689888,0,0,,0,0,-0.4708660126
1.56095345527002E+018,,0.2401508331,0,0,,0,0,-0.4814050555
1.56095345529613E+018,,0.2366378069,0,0,,0,0,-0.4814050555
1.5609534552991E+018,,0.2366378069,0,0,,0,0,-0.4866745949
1.56095345531852E+018,,0.2296117783,0,0,,0,0,-0.4866745949
1.56095345535137E+018,,0.2296117783,0,0,,0,0,-0.4972136736
1.56095345539735E+018,,0.2296117783,0,0,,0,0,-0.4972136736
1.56095345544729E+018,,0.2296117783,0,0,,0,0,-0.4972136736
1.56095345546055E+018,,0.2190727234,0,0,,0,0,-0.5024831772
1.56095345546307E+018,,0.2155596972,0,0,,0,0,-0.5024831772
1.56095345549514E+018,,0.2050206423,0,0,,0,0,-0.5130222559
1.56095345549905E+018,,0.2050206423,0,0,,0,0,-0.5235612988
1.56095345550307E+018,,0.1979945898,0,0,,0,0,-0.5288308382
1.56095345555348E+018,,0.1979945898,0,0,,0,0,-0.5288308382
1.56095345560329E+018,,0.1979945898,0,0,,0,0,-0.5288308382
1.56095345560705E+018,,0.1874555349,0,0,,0,0,-0.5393698812
1.56095345561516E+018,,0.1769164801,0,0,,0,0,-0.5446394205
1.56095345566512E+018,,0.1769164801,0,0,,0,0,-0.5446394205
1.56095345568318E+018,,0.1944815755,0,0,,0,0,-0.5446394205
1.56095345569673E+018,,0.1979945898,0,0,,0,0,-0.5446394205
1.5609534557452E+018,,0.1979945898,0,0,,0,0,-0.5446394205
1.56095345575102E+018,,0.2050206423,0,0,,0,0,-0.5446394205
1.56095345580115E+018,,0.2050206423,0,0,,0,0,-0.5446394205
1.56095345581907E+018,,0.2155596972,0,0,,0,0,-0.5446394205
1.56095345582704E+018,,0.226098752,0,0,,0,0,-0.5235612988
1.56095345583502E+018,,0.2296117783,0,0,,0,0,-0.5024831772
1.56095345583997E+018,,0.2401508331,0,0,,0,0,-0.4972136736
1.56095345584708E+018,,0.2401508331,0,0,,0,0,-0.4866745949
1.56095345585101E+018,,0.2471768618,0,0,,0,0,-0.4866745949
1.56095345585504E+018,,0.250689888,0,0,,0,0,-0.4814050555
1.56095345585905E+018,,0.2577294827,0,0,,0,0,-0.4708660126
1.56095345586708E+018,,0.2682685375,0,0,,0,0,-0.4655964732
1.56095345587106E+018,,0.2717815638,0,0,,0,0,-0.4655964732
1.56095345587905E+018,,0.2823206186,0,0,,0,0,-0.439248848
1.56095345589107E+018,,0.2963726997,0,0,,0,0,-0.4129011869
1.56095345590305E+018,,0.3069117546,0,0,,0,0,-0.402362144
1.56095345591106E+018,,0.3104247808,0,0,,0,0,-0.3865535617
1.5609534559151E+018,,0.3104247808,0,0,,0,0,-0.3812636733
1.56095345591908E+018,,0.3174508333,0,0,,0,0,-0.3707245946
1.56095345592307E+018,,0.3279898882,0,0,,0,0,-0.3549160123
1.56095345592705E+018,,0.3315028906,0,0,,0,0,-0.3443769693
1.56095345593117E+018,,0.3385289431,0,0,,0,0,-0.328568387
1.56095345594312E+018,,0.3420419693,0,0,,0,0,-0.3127598047
1.56095345594739E+018,,0.3490679979,0,0,,0,0,-0.2969512045
1.56095345595108E+018,,0.3490679979,0,0,,0,0,-0.2864121437
1.56095345595516E+018,,0.3490679979,0,0,,0,0,-0.2811426044
1.56095345595904E+018,,0.3525810242,0,0,,0,0,-0.2811426044
1.56095345596303E+018,,0.3525810242,0,0,,0,0,-0.2706035614
1.56095345596741E+018,,0.3596070528,0,0,,0,0,-0.265334022
1.56095345597506E+018,,0.363120079,0,0,,0,0,-0.2547949612
1.56095345598685E+018,,0.363120079,0,0,,0,0,-0.2442559004
1.56095345598849E+018,,0.363120079,0,0,,0,0,-0.2389863789
1.56095345599106E+018,,0.3701461077,0,0,,0,0,-0.2389863789
1.56095345599503E+018,,0.3701461077,0,0,,0,0,-0.2284473181
1.56095345600303E+018,,0.3736591339,0,0,,0,0,-0.2231777966
1.56095345601126E+018,,0.3736591339,0,0,,0,0,-0.2126387358
1.56095345606117E+018,,0.3736591339,0,0,,0,0,-0.2126387358
1.56095345611202E+018,,0.3596070528,0,0,,0,0,-0.2126387358
1.56095345616114E+018,,0.3596070528,0,0,,0,0,-0.2126387358
1.56095345616299E+018,,0.3596070528,0,0,,0,0,-0.2442559004
1.56095345618308E+018,,0.3596070528,0,0,,0,0,-0.2547949612
1.56095345619298E+018,,0.3525810242,0,0,,0,0,-0.2547949612
1.56095345624114E+018,,0.3525810242,0,0,,0,0,-0.2547949612
1.56095345628706E+018,,0.3490679979,0,0,,0,0,-0.265334022
1.56095345629405E+018,,0.3490679979,0,0,,0,0,-0.2706035614
1.56095345634116E+018,,0.3490679979,0,0,,0,0,-0.2706035614
1.5609534563912E+018,,0.3490679979,0,0,,0,0,-0.2706035614
1.56095345644131E+018,,0.3490679979,0,0,,0,0,-0.2706035614
1.56095345645509E+018,,0.3490679979,0,0,,0,0,-0.2811426044
1.56095345646721E+018,,0.3420419693,0,0,,0,0,-0.2864121437
1.56095345647907E+018,,0.3420419693,0,0,,0,0,-0.3074902654
1.56095345648703E+018,,0.3385289431,0,0,,0,0,-0.3127598047
1.56095345650304E+018,,0.3385289431,0,0,,0,0,-0.3232988477
1.56095345650758E+018,,0.3385289431,0,0,,0,0,-0.328568387
1.56095345655714E+018,,0.3385289431,0,0,,0,0,-0.328568387
1.56095345660726E+018,,0.3385289431,0,0,,0,0,-0.328568387
1.56095345665732E+018,,0.3385289431,0,0,,0,0,-0.328568387
1.56095345670746E+018,,0.3385289431,0,0,,0,0,-0.328568387
1.56095345671511E+018,,0.3385289431,0,0,,0,0,-0.2969512045
1.56095345676525E+018,,0.3385289431,0,0,,0,0,-0.2969512045
1.56095345679991E+018,,0.3385289431,0,0,,0,0,-0.2969512045
1.56095345680606E+018,,0.3385289431,0,0,,0,0,-0.2969512045
1.56095345680725E+018,,0.3385289431,0,0,,0,0,-0.2969512045
1.56095345681113E+018,,0.3385289431,0,0,,0,0,-0.2969512045
1.56095345681512E+018,,0.3385289431,0,0,,0,0,-0.2969512045
1.56095345682223E+018,,0.3385289431,0,0,,0,0,-0.2969512045
1.5609534568236E+018,,0.3385289431,0,0,,0,0,-0.2969512045
1.56095345683109E+018,,0.3385289431,0,0,,0,0,-0.2969512045
1.56095345685917E+018,,0.3385289431,0,0,,0,0,-0.2969512045
1.56095345686428E+018,,0.3385289431,0,0,,0,0,-0.2969512045
1.56095345686703E+018,,0.3385289431,0,0,,0,0,-0.2969512045
1.56095345687105E+018,,0.3385289431,0,0,,0,0,-0.2969512045
1.56095345687504E+018,,0.3385289431,0,0,,0,0,-0.2969512045
1.56095345687919E+018,,0.3385289431,0,0,,0,0,-0.2969512045
1.560953456883E+018,,0.3385289431,0,0,,0,0,-0.2969512045
1.56095345688709E+018,,0.3385289431,0,0,,0,0,-0.2969512045
1.56095345689106E+018,,0.3385289431,0,0,,0,0,-0.2969512045
1.56095345694134E+018,,0.3385289431,0,0,,0,0,-0.2969512045
1.5609534569912E+018,,0.3385289431,0,0,,0,0,-0.2969512045
1.5609534570413E+018,,0.3385289431,0,0,,0,0,-0.2969512045
1.56095345709143E+018,,0.3385289431,0,0,,0,0,-0.2969512045
1.56095345714199E+018,,0.3385289431,0,0,,0,0,-0.2969512045
1.56095345719155E+018,,0.3385289431,0,0,,0,0,-0.2969512045
1.56095345724154E+018,,0.3385289431,0,0,,0,0,-0.2969512045
1.56095345729273E+018,,0.3385289431,0,0,,0,0,-0.2969512045
1.56095345734172E+018,,0.3385289431,0,0,,0,0,-0.2969512045
1.56095345739184E+018,,0.3385289431,0,0,,0,0,-0.2969512045
1.5609534574419E+018,,0.3385289431,0,0,,0,0,-0.2969512045
1.56095345749208E+018,,0.3385289431,0,0,,0,0,-0.2969512045
1.56095345755554E+018,,0.3385289431,0,0,,0,0,-0.2969512045
1.56095345759224E+018,,0.3385289431,0,0,,0,0,-0.2969512045
1.56095345764227E+018,,0.3385289431,0,0,,0,0,-0.2969512045
1.56095345769236E+018,,0.3385289431,0,0,,0,0,-0.2969512045
1.56095345774242E+018,,0.3385289431,0,0,,0,0,-0.2969512045
1.5609534577925E+018,,0.3385289431,0,0,,0,0,-0.2969512045
1.56095345784257E+018,,0.3385289431,0,0,,0,0,-0.2969512045
1.56095345789267E+018,,0.3385289431,0,0,,0,0,-0.2969512045
1.56095345794357E+018,,0.3385289431,0,0,,0,0,-0.2969512045
1.5609534579928E+018,,0.3385289431,0,0,,0,0,-0.2969512045
1.56095345804289E+018,,0.3385289431,0,0,,0,0,-0.2969512045
1.56095345809293E+018,,0.3385289431,0,0,,0,0,-0.2969512045
1.56095345814307E+018,,0.3385289431,0,0,,0,0,-0.2969512045
1.56095345819315E+018,,0.3385289431,0,0,,0,0,-0.2969512045
1.56095345824402E+018,,0.3385289431,0,0,,0,0,-0.2969512045
1.56095345829327E+018,,0.3385289431,0,0,,0,0,-0.2969512045
1.56095345834342E+018,,0.3385289431,0,0,,0,0,-0.2969512045
1.56095345839378E+018,,0.3385289431,0,0,,0,0,-0.2969512045
1.56095345844459E+018,,0.3385289431,0,0,,0,0,-0.2969512045
1.5609534584937E+018,,0.3385289431,0,0,,0,0,-0.2969512045
1.56095345854688E+018,,0.3385289431,0,0,,0,0,-0.2969512045
1.56095345859378E+018,,0.3385289431,0,0,,0,0,-0.2969512045
1.56095345864383E+018,,0.3385289431,0,0,,0,0,-0.2969512045
1.56095345869391E+018,,0.3385289431,0,0,,0,0,-0.2969512045
1.56095345874395E+018,,0.3385289431,0,0,,0,0,-0.2969512045
1.56095345879401E+018,,0.3385289431,0,0,,0,0,-0.2969512045
1.5609534588441E+018,,0.3385289431,0,0,,0,0,-0.2969512045
1.56095345889416E+018,,0.3385289431,0,0,,0,0,-0.2969512045
1.56095345894481E+018,,0.3385289431,0,0,,0,0,-0.2969512045
1.56095345899427E+018,,0.3385289431,0,0,,0,0,-0.2969512045
1.56095345904434E+018,,0.3385289431,0,0,,0,0,-0.2969512045
1.56095345909625E+018,,0.3385289431,0,0,,0,0,-0.2969512045
1.56095345914487E+018,,0.3385289431,0,0,,0,0,-0.2969512045
1.56095345919455E+018,,0.3385289431,0,0,,0,0,-0.2969512045
1.56095345924461E+018,,0.3385289431,0,0,,0,0,-0.2969512045
1.56095345929466E+018,,0.3385289431,0,0,,0,0,-0.2969512045
1.56095345934473E+018,,0.3385289431,0,0,,0,0,-0.2969512045
1.56095345939479E+018,,0.3385289431,0,0,,0,0,-0.2969512045
1.56095345944488E+018,,0.3385289431,0,0,,0,0,-0.2969512045
1.56095345949499E+018,,0.3385289431,0,0,,0,0,-0.2969512045
1.56095345953214E+018,,0.3525810242,0,0,,0,0,-0.2864121437
1.56095345953898E+018,,0.3596070528,0,0,,0,0,-0.2864121437
1.56095345954297E+018,,0.3596070528,0,0,,0,0,-0.2811426044
1.56095345957139E+018,,0.363120079,0,0,,0,0,-0.265334022
1.56095345957499E+018,,0.3701461077,0,0,,0,0,-0.2442559004
1.56095345957921E+018,,0.3736591339,0,0,,0,0,-0.2284473181
1.56095345958297E+018,,0.3806851625,0,0,,0,0,-0.2126387358
1.56095345958696E+018,,0.3841981888,0,0,,0,0,-0.2073691964
1.56095345963711E+018,,0.3841981888,0,0,,0,0,-0.2073691964
1.56095345968726E+018,,0.3841981888,0,0,,0,0,-0.2073691964
1.56095345973746E+018,,0.3841981888,0,0,,0,0,-0.2073691964
1.5609534597873E+018,,0.3841981888,0,0,,0,0,-0.2073691964
1.56095345983804E+018,,0.3841981888,0,0,,0,0,-0.2073691964
1.56095345988804E+018,,0.3841981888,0,0,,0,0,-0.2073691964
1.56095345993811E+018,,0.3841981888,0,0,,0,0,-0.2073691964
1.56095345998804E+018,,0.3841981888,0,0,,0,0,-0.2073691964
1.56095346003942E+018,,0.3841981888,0,0,,0,0,-0.2073691964
1.56095346008797E+018,,0.3841981888,0,0,,0,0,-0.2073691964
1.56095346013805E+018,,0.3841981888,0,0,,0,0,-0.2073691964
1.560953460188E+018,,0.3841981888,0,0,,0,0,-0.2073691964
1.56095346023823E+018,,0.3841981888,0,0,,0,0,-0.2073691964
1.56095346028834E+018,,0.3841981888,0,0,,0,0,-0.2073691964
1.56095346033844E+018,,0.3841981888,0,0,,0,0,-0.2073691964
1.5609534603908E+018,,0.3841981888,0,0,,0,0,-0.2073691964
1.56095346043831E+018,,0.3841981888,0,0,,0,0,-0.2073691964
1.56095346049251E+018,,0.3841981888,0,0,,0,0,-0.2073691964
1.56095346053864E+018,,0.3841981888,0,0,,0,0,-0.2073691964
1.56095346055115E+018,,0.3701461077,0,0,,0,0,-0.2442559004
1.56095346055493E+018,,0.363120079,0,0,,0,0,-0.2547949612
1.56095346060503E+018,,0.363120079,0,0,,0,0,-0.2547949612
1.56095346061097E+018,,0.363120079,0,0,,0,0,-0.265334022
1.56095346066105E+018,,0.363120079,0,0,,0,0,-0.265334022
1.56095346071179E+018,,0.363120079,0,0,,0,0,-0.265334022
1.56095346076123E+018,,0.363120079,0,0,,0,0,-0.265334022
1.56095346081128E+018,,0.363120079,0,0,,0,0,-0.265334022
1.56095346086134E+018,,0.363120079,0,0,,0,0,-0.265334022
1.56095346091145E+018,,0.363120079,0,0,,0,0,-0.265334022
1.56095346096319E+018,,0.363120079,0,0,,0,0,-0.265334022
1.56095346101157E+018,,0.363120079,0,0,,0,0,-0.265334022
1.5609534610631E+018,,0.363120079,0,0,,0,0,-0.265334022
1.56095346111176E+018,,0.363120079,0,0,,0,0,-0.265334022
1.56095346116179E+018,,0.363120079,0,0,,0,0,-0.265334022
1.56095346117113E+018,,0.3525810242,0,0,,0,0,-0.2706035614
1.56095346117495E+018,,0.3525810242,0,0,,0,0,-0.2811426044
1.560953461199E+018,,0.3490679979,0,0,,0,0,-0.2811426044
1.56095346124906E+018,,0.3490679979,0,0,,0,0,-0.2811426044
1.5609534612991E+018,,0.3490679979,0,0,,0,0,-0.2811426044
1.56095346134922E+018,,0.3490679979,0,0,,0,0,-0.2811426044
1.56095346139929E+018,,0.3490679979,0,0,,0,0,-0.2811426044
1.56095346144935E+018,,0.3490679979,0,0,,0,0,-0.2811426044
1.56095346149972E+018,,0.3490679979,0,0,,0,0,-0.2811426044
1.56095346154955E+018,,0.3490679979,0,0,,0,0,-0.2811426044
1.56095346159969E+018,,0.3490679979,0,0,,0,0,-0.2811426044
1.56095346163897E+018,,0.3420419693,0,0,,0,0,-0.3074902654
1.56095346164293E+018,,0.3385289431,0,0,,0,0,-0.3232988477
1.56095346164693E+018,,0.3385289431,0,0,,0,0,-0.33910743
1.56095346165092E+018,,0.3315028906,0,0,,0,0,-0.33910743
1.56095346170102E+018,,0.3315028906,0,0,,0,0,-0.33910743
1.56095346175107E+018,,0.3315028906,0,0,,0,0,-0.33910743
1.56095346180118E+018,,0.3315028906,0,0,,0,0,-0.33910743
1.56095346185134E+018,,0.3315028906,0,0,,0,0,-0.33910743
1.56095346190129E+018,,0.3315028906,0,0,,0,0,-0.33910743
1.56095346195135E+018,,0.3315028906,0,0,,0,0,-0.33910743
1.56095346200143E+018,,0.3315028906,0,0,,0,0,-0.33910743
1.56095346205154E+018,,0.3315028906,0,0,,0,0,-0.33910743
1.56095346210185E+018,,0.3315028906,0,0,,0,0,-0.33910743
1.56095346215163E+018,,0.3315028906,0,0,,0,0,-0.33910743
1.56095346220171E+018,,0.3315028906,0,0,,0,0,-0.33910743
1.56095346225214E+018,,0.3315028906,0,0,,0,0,-0.33910743
1.56095346230195E+018,,0.3315028906,0,0,,0,0,-0.33910743
1.56095346235199E+018,,0.3315028906,0,0,,0,0,-0.33910743
1.56095346240205E+018,,0.3315028906,0,0,,0,0,-0.33910743
1.56095346245213E+018,,0.3315028906,0,0,,0,0,-0.33910743
1.56095346250246E+018,,0.3315028906,0,0,,0,0,-0.33910743
1.56095346255265E+018,,0.3315028906,0,0,,0,0,-0.33910743
1.56095346260243E+018,,0.3315028906,0,0,,0,0,-0.33910743
1.56095346265249E+018,,0.3315028906,0,0,,0,0,-0.33910743
1.56095346270223E+018,,0.3490679979,0,0,,0,0,-0.3074902654
1.56095346271497E+018,,0.3596070528,0,0,,0,0,-0.2811426044
1.56095346272362E+018,,0.363120079,0,0,,0,0,-0.265334022
1.56095346272693E+018,,0.363120079,0,0,,0,0,-0.2547949612
1.56095346273096E+018,,0.3701461077,0,0,,0,0,-0.2547949612
1.56095346273494E+018,,0.3701461077,0,0,,0,0,-0.2442559004
1.56095346274544E+018,,0.3736591339,0,0,,0,0,-0.2389863789
1.56095346279309E+018,,0.3736591339,0,0,,0,0,-0.2389863789
1.56095346280341E+018,,0.3736591339,0,0,,0,0,-0.2284473181
1.56095346285322E+018,,0.3736591339,0,0,,0,0,-0.2284473181
1.56095346290316E+018,,0.3736591339,0,0,,0,0,-0.2284473181
1.5609534629532E+018,,0.3736591339,0,0,,0,0,-0.2284473181
1.56095346300385E+018,,0.3736591339,0,0,,0,0,-0.2284473181
1.56095346305352E+018,,0.3736591339,0,0,,0,0,-0.2284473181
1.56095346307495E+018,,0.3736591339,0,0,,0,0,-0.2547949612
1.56095346308291E+018,,0.3596070528,0,0,,0,0,-0.2547949612
1.56095346308691E+018,,0.3596070528,0,0,,0,0,-0.265334022
1.56095346313093E+018,,0.3525810242,0,0,,0,0,-0.2706035614
1.56095346313489E+018,,0.3525810242,0,0,,0,0,-0.2811426044
1.56095346314293E+018,,0.3490679979,0,0,,0,0,-0.2811426044
1.56095346319655E+018,,0.3490679979,0,0,,0,0,-0.2811426044
1.56095346321893E+018,,0.3420419693,0,0,,0,0,-0.3074902654
1.56095346322287E+018,,0.3420419693,0,0,,0,0,-0.3127598047
1.56095346323087E+018,,0.3385289431,0,0,,0,0,-0.3232988477
1.56095346325922E+018,,0.3385289431,0,0,,0,0,-0.328568387
1.56095346330898E+018,,0.3385289431,0,0,,0,0,-0.328568387
1.56095346336028E+018,,0.3315028906,0,0,,0,0,-0.3443769693
1.56095346336295E+018,,0.3209638357,0,0,,0,0,-0.3549160123
1.56095346336687E+018,,0.3209638357,0,0,,0,0,-0.3707245946
1.56095346338307E+018,,0.3174508333,0,0,,0,0,-0.3707245946
1.5609534633909E+018,,0.3174508333,0,0,,0,0,-0.3812636733
1.56095346339888E+018,,0.3104247808,0,0,,0,0,-0.3865535617
1.56095346344897E+018,,0.3104247808,0,0,,0,0,-0.3865535617
1.56095346349901E+018,,0.3104247808,0,0,,0,0,-0.3865535617
1.5609534635491E+018,,0.3104247808,0,0,,0,0,-0.3865535617
1.56095346359917E+018,,0.3104247808,0,0,,0,0,-0.3865535617
1.56095346364931E+018,,0.3104247808,0,0,,0,0,-0.3865535617
1.5609534636994E+018,,0.3104247808,0,0,,0,0,-0.3865535617
1.56095346374944E+018,,0.3104247808,0,0,,0,0,-0.3865535617
1.56095346379951E+018,,0.3104247808,0,0,,0,0,-0.3865535617
1.56095346384957E+018,,0.3104247808,0,0,,0,0,-0.3865535617
1.56095346389968E+018,,0.3104247808,0,0,,0,0,-0.3865535617
1.5609534639497E+018,,0.3104247808,0,0,,0,0,-0.3865535617
1.56095346399976E+018,,0.3104247808,0,0,,0,0,-0.3865535617
1.56095346404983E+018,,0.3104247808,0,0,,0,0,-0.3865535617
1.56095346409993E+018,,0.3104247808,0,0,,0,0,-0.3865535617
1.56095346414996E+018,,0.3104247808,0,0,,0,0,-0.3865535617
1.56095346415886E+018,,0.3315028906,0,0,,0,0,-0.3865535617
1.56095346416283E+018,,0.3315028906,0,0,,0,0,-0.365455091
1.56095346419486E+018,,0.3385289431,0,0,,0,0,-0.3443769693
1.56095346419882E+018,,0.3420419693,0,0,,0,0,-0.328568387
1.56095346420286E+018,,0.3490679979,0,0,,0,0,-0.3127598047
1.56095346421487E+018,,0.3490679979,0,0,,0,0,-0.3074902654
1.56095346426318E+018,,0.3525810242,0,0,,0,0,-0.3074902654
1.56095346431298E+018,,0.3525810242,0,0,,0,0,-0.3074902654
1.56095346436302E+018,,0.3525810242,0,0,,0,0,-0.3074902654
1.56095346441314E+018,,0.3525810242,0,0,,0,0,-0.3074902654
1.56095346446319E+018,,0.3525810242,0,0,,0,0,-0.3074902654
1.56095346451327E+018,,0.3525810242,0,0,,0,0,-0.3074902654
1.56095346456333E+018,,0.3525810242,0,0,,0,0,-0.3074902654
1.56095346461349E+018,,0.3525810242,0,0,,0,0,-0.3074902654
1.56095346466349E+018,,0.3525810242,0,0,,0,0,-0.3074902654
1.56095346471362E+018,,0.3525810242,0,0,,0,0,-0.3074902654
1.56095346476365E+018,,0.3525810242,0,0,,0,0,-0.3074902654
1.56095346481371E+018,,0.3525810242,0,0,,0,0,-0.3074902654
1.56095346483484E+018,,0.363120079,0,0,,0,0,-0.2706035614
1.56095346483943E+018,,0.3701461077,0,0,,0,0,-0.2547949612
1.56095346484287E+018,,0.3701461077,0,0,,0,0,-0.2442559004
1.56095346484685E+018,,0.3736591339,0,0,,0,0,-0.2389863789
1.56095346485192E+018,,0.3736591339,0,0,,0,0,-0.2284473181
1.56095346486683E+018,,0.3806851625,0,0,,0,0,-0.2284473181
1.56095346491699E+018,,0.3806851625,0,0,,0,0,-0.2284473181
1.56095346496703E+018,,0.3806851625,0,0,,0,0,-0.2284473181
1.56095346501712E+018,,0.3806851625,0,0,,0,0,-0.2284473181
1.56095346506716E+018,,0.3806851625,0,0,,0,0,-0.2284473181
1.56095346511726E+018,,0.3806851625,0,0,,0,0,-0.2284473181
1.56095346516731E+018,,0.3806851625,0,0,,0,0,-0.2284473181
1.56095346521745E+018,,0.3806851625,0,0,,0,0,-0.2284473181
1.56095346526803E+018,,0.3806851625,0,0,,0,0,-0.2284473181
1.56095346531954E+018,,0.3806851625,0,0,,0,0,-0.2284473181
1.56095346536798E+018,,0.3806851625,0,0,,0,0,-0.2284473181
1.56095346541995E+018,,0.3806851625,0,0,,0,0,-0.2284473181
1.56095346546872E+018,,0.3806851625,0,0,,0,0,-0.2284473181
1.56095346551801E+018,,0.3806851625,0,0,,0,0,-0.2284473181
1.56095346556899E+018,,0.3806851625,0,0,,0,0,-0.2284473181
1.56095346561801E+018,,0.3806851625,0,0,,0,0,-0.2284473181
1.5609534656681E+018,,0.3806851625,0,0,,0,0,-0.2284473181
1.56095346571497E+018,,0.3912242413,0,0,,0,0,-0.1862910926
1.56095346575938E+018,,0.4,0,0,,0,0,-0.1493840307
1.56095346577484E+018,,0.4,0,0,,0,0,-0.1388449788
1.56095346578283E+018,,0.4,0,0,,0,0,-0.1124973267
1.56095346578685E+018,,0.4,0,0,,0,0,-0.1072277963
1.56095346581776E+018,,0.4,0,0,,0,0,-0.0966887444
1.56095346586553E+018,,0.4,0,0,,0,0,-0.0966887444
1.56095346592264E+018,,0.4,0,0,,0,0,-0.0966887444
1.56095346596507E+018,,0.4,0,0,,0,0,-0.0966887444
1.5609534660159E+018,,0.4,0,0,,0,0,-0.0966887444
1.5609534660652E+018,,0.4,0,0,,0,0,-0.0966887444
1.56095346611621E+018,,0.4,0,0,,0,0,-0.0966887444
1.56095346616534E+018,,0.4,0,0,,0,0,-0.0966887444
1.56095346619489E+018,,0.4,0,0,,0,0,-0.0650715664
1.56095346619881E+018,,0.4,0,0,,0,0,-0.0387239188
1.56095346620275E+018,,0.4,0,0,,0,0,-0.0123762734
1.56095346620734E+018,,0.4,0,0,,0,0,0
1.5609534662108E+018,,0.4,0,0,,0,0,0
1.56095346621579E+018,,0.4,0,0,,0,0,0
1.56095346623887E+018,,0.4,0,0,,0,0,0
